,rooms,area,rent,street,zip_code,latitude,longitude,rent_norm
0,1,26,8650,Finsensvej                    ,2000,55.68118870000001,12.5186236,332.6923076923077
1,2,38,11800,Finsensvej                    ,2000,55.68118870000001,12.5186236,310.5263157894737
2,1,41,4492,Nordre Fasanvej               ,2000,55.69509790000001,12.5336087,109.5609756097561
3,1,41,4478,Robert Jacobsens Vej          ,2300,55.6187043,12.5731692,109.21951219512195
4,1,47,9600,Torvegade                     ,1400,55.671192,12.5933256,204.25531914893617
5,4,93,12900,Gadelandet                    ,2700,55.7115422,12.4809887,138.70967741935485
6,2,67,13800,Amager Strandvej              ,2300,55.66752320000002,12.6270359,205.97014925373134
7,3,81,13600,Bryrupvej                     ,2770,55.60972700000001,12.583102,167.90123456790124
8,1,29,7600,Poul Bundgaards Vej           ,2500,55.6591062,12.5100733,262.0689655172414
9,2,50,12000,Sortedam Dossering            ,2200,55.6916758,12.5681452,240.0
10,3,146,26000,Baldrianvej                   ,2900,55.7372863,12.5382676,178.08219178082192
11,1,24,8300,Finsensvej                    ,2000,55.68118870000001,12.5186236,345.8333333333333
12,3,70,9152,Mørkhøjvej                    ,2860,55.7208951,12.4736383,130.74285714285713
13,3,74,13400,Gertrude Steins Vej           ,2300,55.6397887,12.5820155,181.0810810810811
14,4,95,14000,Lundtoftegade                 ,2200,55.6974419,12.5386965,147.3684210526316
15,3,89,13936,Faste Batteri Vej             ,2300,55.6644927,12.5914391,156.58426966292134
16,1,8,4100,Rabarbervej                   ,2400,55.69546219999999,12.5245579,512.5
17,1,120,6000,richards mortensens vej       ,2300,55.6195677,12.5712203,50.0
18,3,95,11000,Ryesgade                      ,2100,55.6958546,12.5729945,115.78947368421052
19,3,69,9074,Mørkhøjvej                    ,2860,55.7210145,12.472446,131.5072463768116
20,1,84,4451,Tagensvej                     ,2200,55.7009972,12.5514212,52.98809523809524
21,1,50,10000,Azaleavej                     ,2000,55.6711263,12.5171446,200.0
22,3,80,12823,Elstarvej                     ,2500,55.6571606,12.5004714,160.2875
23,1,41,6386,Følager                       ,2500,55.6524055,12.5122003,155.7560975609756
24,2,61,9564,Peter Bangs Vej               ,2000,55.6780033,12.4961945,156.78688524590163
25,2,50,9000,Tudskærvej                    ,2720,55.6910911,12.4690772,180.0
26,1,40,7000,Støberigade                   ,2450,55.6495537,12.5514972,175.0
27,3,83,12450,Irmavej                       ,2610,55.6768504,12.4362196,150.0
28,4,87,11900,Gyngemose Parkvej             ,2860,55.72670060000001,12.4797398,136.7816091954023
29,5,219,26950,Vesterbrogade                 ,1620,55.6726375,12.5524931,123.05936073059361
30,4,134,17750,Moltkesvej                    ,2000,55.68669190000001,12.5112453,132.46268656716418
31,2,54,12700,Flaskehalsen                  ,1799,55.6648972,12.5360626,235.1851851851852
32,2,45,11900,Ane Katrines Vej              ,2000,55.69206490000001,12.5347517,264.44444444444446
33,1,35,7539,Hans Knudsens Plads           ,2100,55.713941,12.5599257,215.4
34,1,37,5122,Strandlodsvej                 ,2300,55.667178,12.620381,138.43243243243242
35,3,66,13000,Ny Adelgade                   ,1104,55.6813373,12.5833568,196.96969696969697
36,3,102,14035,Falkevej                      ,2400,55.69874799999998,12.53532,137.59803921568627
37,1,47,8366,Frederikssundsvej             ,2400,55.7012191,12.5357119,178.0
38,1,27,5590,Tobaksvejen                   ,2860,55.7410736,12.4858634,207.03703703703704
39,1,31,6136,Jorisvej                      ,2300,55.64632409999999,12.6358889,197.93548387096774
40,3,83,12267,Robert Jacobsens Vej          ,2300,55.6210635,12.5732027,147.79518072289156
41,2,66,11838,Ingrid Marievej               ,2500,55.6567609,12.5037915,179.36363636363637
42,3,84,12950,Dieselvej                     ,2450,55.6513877,12.5554596,154.16666666666666
43,4,107,14500,Halldór Laxness Vej           ,2300,55.6357535,12.5803116,135.51401869158877
44,3,91,12297,Robert Jacobsens Vej          ,2300,55.6178099,12.572924,135.13186813186815
45,2,58,11900,Gertrude Steins Vej           ,2300,55.6399152,12.5829647,205.17241379310346
46,5,110,19995,Falkevej                      ,2400,55.69877,12.5351779,181.77272727272728
47,2,86,12000,Mimers Plads                  ,2200,55.70026859999999,12.5457268,139.53488372093022
48,2,55,9900,Lyngbyvej                     ,2100,55.7118775,12.5603358,180.0
49,3,87,14600,Ben Websters Vej              ,2450,55.6465652,12.5520061,167.816091954023
50,2,58,11950,Marstalsgade                  ,2100,55.704081,12.588843,206.0344827586207
51,1,22,5200,Nørrebrogade                  ,2200,55.69325199999999,12.5509037,236.36363636363637
52,2,43,9400,Poppelstykket                 ,2450,55.6513066,12.5111867,218.6046511627907
53,4,96,13000,Hannemanns Allé               ,2300,55.626185,12.5762249,135.41666666666666
54,2,81,12870,Islands Brygge                ,2300,55.6618119,12.5696679,158.88888888888889
55,1,44,7490,Vanløse Allé                  ,2720,55.6915759,12.5023195,170.22727272727272
56,1,31,6136,Jorisvej                      ,2300,55.6458028,12.637553,197.93548387096774
57,1,31,7600,Gammel Køge Landevej          ,2500,55.6557474,12.5116058,245.16129032258064
58,2,56,10500,Roskildevej                   ,2000,55.67151939999999,12.5221006,187.5
59,2,62,12500,Nygårdsvej                    ,2100,55.71203,12.5714277,201.61290322580646
60,3,89,13865,Njalsgade                     ,2300,55.6630951,12.5935843,155.7865168539326
61,2,52,7354,Aggersvoldvej                 ,2700,55.6959589,12.5002814,141.42307692307693
62,4,107,14875,Glostervej                    ,2500,55.6538587,12.5037334,139.01869158878506
63,1,35,6650,Rabarbervej                   ,2400,55.69546219999999,12.5245579,190.0
64,1,43,6500,Støberigade                   ,2450,55.6495537,12.5514972,151.1627906976744
65,3,93,12382,Hannemanns Allé               ,2300,55.626185,12.5762249,133.13978494623655
66,3,99,15700,Strandslodsvej                ,2300,55.6652272,12.6242794,158.58585858585857
67,1,29,7300,Vanløse Allé                  ,2720,55.6884627,12.4943031,251.72413793103448
68,1,29,7400,Vanløse Allé                  ,2720,55.6884627,12.4943031,255.17241379310346
69,3,80,13600,Bryrupvej                     ,2770,55.60972700000001,12.583102,170.0
70,1,15,4300,Ceresvej                      ,1863,55.6792944,12.5368945,286.6666666666667
71,5,118,17907,Richard Mortensens Vej        ,2300,55.62133720000001,12.5731971,151.75423728813558
72,2,71,12800,Bomhusvej                     ,2100,55.72244,12.5577373,180.28169014084506
73,1,50,10500,Dronningens Tværgade          ,1302,55.68411889999999,12.5853513,210.0
74,4,101,14747,Elstarvej                     ,2500,55.6569091,12.5014271,146.009900990099
75,1,43,10800,Else Alfelts Vej              ,2300,55.6168704,12.5660394,251.1627906976744
76,2,52,12000,Nordre Fasanvej st.           ,2000,55.6884101,12.5280722,230.76923076923077
77,1,30,8750,Refshalevej                   ,1432,55.68940199999999,12.616046,291.6666666666667
78,1,55,8800,Støberigade                   ,2450,55.6495537,12.5514972,160.0
79,3,115,17791,Aurehøjvej                    ,2900,55.7352126,12.5737343,154.70434782608694
80,2,56,11200,Borgmester Christiansens Gade ,2450,55.6482025,12.5374024,200.0
81,3,61,10000,Veras Allé                    ,2720,55.6880961,12.4843965,163.9344262295082
82,1,12,3900,Vestervoldgade                ,1552,55.6783799,12.5666644,325.0
83,4,118,15300,Irmavej                       ,2610,55.67698309999999,12.4362041,129.66101694915255
84,3,96,15376,Flintholm Allé                ,2000,55.684584,12.5008044,160.16666666666666
85,1,40,7350,Kobbelvænget                  ,2700,55.7112967,12.4806054,183.75
86,3,100,15990,Tåsingegade                   ,2100,55.7099805,12.5767607,159.9
87,1,16,3600,Prinsessegade                 ,1422,55.6734269,12.5960418,225.0
88,2,64,11800,Emma Gads Vej                 ,2300,55.6381171,12.5807981,184.375
89,2,64,11950,Halldór Laxness Vej           ,2300,55.6375982,12.5815314,186.71875
90,2,43,9500,Poppelstykket                 ,2450,55.6515557,12.5119233,220.93023255813952
91,1,42,6394,Frederikssundsvej             ,2700,55.7077918,12.4853417,152.23809523809524
92,5,123,16705,Robert Jacobsens Vej          ,2300,55.6217108,12.5729561,135.8130081300813
93,4,110,14341,Carl Jacobsens Vej            ,2500,55.6529391,12.51822,130.37272727272727
94,2,85,18500,Tøndergade                    ,1752,55.6703746,12.5435301,217.64705882352942
95,3,79,12300,Halldor Laxness Vej           ,2300,55.63593539999999,12.5806427,155.69620253164558
96,2,65,10950,Else Alfelts Vej              ,2300,55.6174184,12.5663495,168.46153846153845
97,5,112,16100,Else Alfelts Vej              ,2300,55.6169586,12.5663611,143.75
98,1,14,5150,Rabarbervej                   ,2400,55.69525160000001,12.5235729,367.85714285714283
99,3,79,12905,Ingrid Marievej               ,2500,55.6567609,12.5037915,163.35443037974684
100,1,15,3900,Bjergvænget                   ,2400,55.715922,12.5354978,260.0
101,1,50,8000,Elstarvej                     ,2500,55.6558982,12.5034846,160.0
102,3,73,9200,Grønnemose Alle               ,2860,55.7239129,12.5072853,126.02739726027397
103,1,49,8950,Nordens Plads                 ,2000,55.6710648,12.5013937,182.6530612244898
104,1,13,4920,Rabarbervej                   ,2400,55.6961805,12.5240192,378.46153846153845
105,2,70,11950,Michael Strunges Vej          ,2300,55.6508754,12.5991891,170.71428571428572
106,1,20,6000,Vester Voldgade               ,1552,55.6750751,12.571788,300.0
107,2,53,9450,Gadelandet                    ,2700,55.7112397,12.4802508,178.30188679245282
108,1,42,6189,Strandlodsvej                 ,2300,55.667178,12.620381,147.35714285714286
109,5,131,18400,Ved Stigbordene               ,2450,55.644377,12.5488939,140.45801526717557
110,3,52,12395,Faste Batteri Vej             ,2300,55.66450469999998,12.5912948,238.3653846153846
111,2,65,11438,Elstarvej                     ,2500,55.657137,12.5004565,175.96923076923076
112,1,39,9900,Gl. Kongevej                  ,1850,55.6771559,12.5377572,253.84615384615384
113,5,140,21500,Nørrebrogade                  ,2200,55.6948854,12.5483318,153.57142857142858
114,2,68,11000,Vestre Teglgade               ,2450,55.6551874,12.548544,161.76470588235293
115,2,86,15999,Nytorv                        ,1450,55.6778296,12.5732055,186.03488372093022
116,1,14,5150,Rabarbervej                   ,2400,55.6961805,12.5240192,367.85714285714283
117,1,35,8618,Svend Trøsts Vej              ,1912,55.67942499999998,12.5514368,246.22857142857143
118,4,108,18000,Nygade                        ,1164,55.678251,12.5736504,166.66666666666666
119,7,158,23000,Bækkeskovvej                  ,2700,55.7028949,12.4934616,145.56962025316454
120,2,78,11000,Amagerbrogade                 ,2300,55.6541904,12.6111424,141.02564102564102
121,1,29,7400,Vanløse Allé                  ,2720,55.6884627,12.4943031,255.17241379310346
122,1,12,3900,Vermundsgade                  ,2100,55.7060314,12.552815,325.0
123,4,102,16224,Faste Batteri Vej             ,2300,55.6644927,12.5914391,159.05882352941177
124,3,65,13118,Njalsgade                     ,2300,55.6630951,12.5935843,201.8153846153846
125,1,21,5000,ja                            ,2500,55.6658351,12.5096978,238.0952380952381
126,2,77,12200,Clara Pontoppidans Vej        ,2500,55.65814169999999,12.5118759,158.44155844155844
127,1,35,7450,Lindgreens Allé               ,2300,55.66751499999999,12.621765,212.85714285714286
128,4,107,18500,Mariendalsvej                 ,2000,55.6909998,12.5318338,172.89719626168224
129,2,65,12500,Bomhusvej                     ,2100,55.72244,12.5577373,192.30769230769232
130,5,162,20235,Fiolstræde                    ,1171,55.6816853,12.5722237,124.9074074074074
131,2,115,18820,Islands Brygge                ,2300,55.6618119,12.5696679,163.65217391304347
132,3,96,14975,Theodore Roosevelts Vej       ,2450,55.6490514,12.5352729,155.98958333333334
133,1,40,8200,Peder Lykkes Vej              ,2300,55.65372190000001,12.6031793,205.0
134,4,177,26560,Nytorv                        ,1164,55.6777785,12.5734097,150.05649717514123
135,2,85,11500,Hultmannsvej                  ,2900,55.7437337,12.5727699,135.2941176470588
136,1,32,7334,Theklavej                     ,2400,55.70550189999999,12.5271191,229.1875
137,3,65,12799,Njalsgade                     ,2300,55.6630951,12.5935843,196.90769230769232
138,4,102,14000,Gadeladet                     ,2700,55.7071732,12.4915226,137.2549019607843
139,1,8,4500,Jægersborggade                ,2200,55.6923143,12.5442103,562.5
140,1,32,7450,Lindgreens Allé               ,2300,55.66751499999999,12.621765,232.8125
141,3,110,16500,Kastelsvej                    ,2100,55.69611620000001,12.5847604,150.0
142,7,291,25500,H.C. Andersens Boulevard      ,1553,55.6720313,12.5761123,87.62886597938144
143,1,20,6000,Sorgenfrigade                 ,2200,55.6955019,12.5453297,300.0
144,3,86,12807,Hannemanns Allé               ,2300,55.626185,12.5762249,148.91860465116278
145,6,231,31762,Nørre Voldgade                ,1358,55.684228,12.5725079,137.4978354978355
146,2,62,12097,Jane Addams Vej               ,2450,55.6582265,12.5605041,195.11290322580646
147,1,37,8584,Svend Trøsts Vej              ,1912,55.67942499999998,12.5514368,232.0
148,3,79,13118,Jernæblevej                   ,2500,55.66084129999999,12.5030899,166.0506329113924
149,3,105,15000,George Marshalls Vej          ,2450,55.65878,12.5626532,142.85714285714286
150,4,105,14800,Ørestads Boulevard            ,2300,55.6361249,12.5812123,140.95238095238096
151,3,108,14883,Peter Bangs Vej               ,2000,55.678166,12.493615,137.80555555555554
152,2,38,10600,Amerikavej                    ,1756,55.6689619,12.5419543,278.94736842105266
153,4,103,19995,Sjællandsgade                 ,2200,55.6930367,12.5519897,194.126213592233
154,3,90,15900,Schleppegrellsgade            ,2200,55.68987600000002,12.5643718,176.66666666666666
155,1,38,8607,Hans Knudsens Plads           ,2100,55.713941,12.5599257,226.5
156,1,23,7000,C.F. Richs Vej                ,2000,55.68671,12.5039269,304.3478260869565
157,4,147,18606,Frederiksborggade             ,1360,55.683053,12.5727149,126.57142857142857
158,7,214,33438,Amaliegade                    ,1256,55.6875904,12.5959552,156.25233644859813
159,1,36,7000,Elstarvej                     ,2500,55.6558982,12.5034846,194.44444444444446
160,4,126,20300,Willemoesgade                 ,2100,55.6985847,12.5857688,161.11111111111111
161,1,43,7640,Frederikssundsvej             ,2400,55.7012191,12.5357119,177.67441860465115
162,3,93,15500,Margretheholmsvej             ,1432,55.6856974,12.6156874,166.66666666666666
163,3,102,14995,Fajancegade                   ,2500,55.6651654,12.5106155,147.00980392156862
164,3,111,17000,Kronprinsessegade             ,1306,55.683567,12.5817716,153.15315315315314
165,1,49,8950,Domus Vista                   ,2000,55.6710648,12.5013936,182.6530612244898
166,2,40,10800,Amerikavej                    ,1756,55.6689619,12.5419543,270.0
167,1,54,10000,Nyborggade                    ,2100,55.70974,12.5795408,185.1851851851852
168,1,15,7000,Grøndalsvej                   ,2000,55.6883852,12.5088881,466.6666666666667
169,1,180,19800,Nørregade                     ,1165,55.6806586,12.5711746,110.0
170,2,63,10950,Børge Olsens Plads            ,2610,55.67117589999999,12.4728844,173.8095238095238
171,3,65,13832,Njalsgade                     ,2300,55.6630951,12.5935843,212.8
172,3,90,13466,Gyngemose Parkvej             ,2860,55.7261207,12.478513,149.62222222222223
173,4,119,20000,C V E Knuths Vej              ,2900,55.73273889999999,12.5617231,168.0672268907563
174,1,37,7700,Lærkevej                      ,2400,55.7017902,12.5305111,208.1081081081081
175,2,56,10475,Ørestads Boulevard            ,2300,55.636709,12.582897,187.05357142857142
176,1,15,6750,Gammel Kongevej               ,1850,55.67547250000002,12.5463479,450.0
177,2,79,13800,Alliancevej                   ,2450,55.648375,12.5530654,174.68354430379748
178,1,24,5999,Carl Th. Dreyers Vej          ,2500,55.66880030000001,12.4997413,249.95833333333334
179,1,32,6350,Gyngemose Parkvej             ,2860,55.7272197,12.4792895,198.4375
180,3,70,13250,Else Afelts Vej               ,2300,55.619128,12.5686257,189.28571428571428
181,1,43,7939,Frederikssundsvej             ,2400,55.7012191,12.5357119,184.62790697674419
182,3,73,9200,Grønnemose Alle               ,2860,55.7239129,12.5072853,126.02739726027397
183,10,501,90000,Søndermarksvej                ,2500,55.665369,12.5251856,179.64071856287424
184,2,64,10350,Else Alfelts Vej              ,2300,55.6174184,12.5663495,161.71875
185,1,37,7800,Peder Lykkes Vej              ,2300,55.65372190000001,12.6031793,210.8108108108108
186,5,162,20235,Fiolstræde                    ,1171,55.6816853,12.5722237,124.9074074074074
187,1,14,3900,ja                            ,2200,55.6928897,12.547805,278.57142857142856
188,4,107,17800,Islands Brygge                ,2300,55.66006059999999,12.5688409,166.3551401869159
189,4,105,14859,Elstarvej                     ,2500,55.6571957,12.5004255,141.5142857142857
190,2,63,11050,Else Alfelts Vej              ,2300,55.6174184,12.5663495,175.3968253968254
191,3,90,13950,Glostervej                    ,2500,55.6538587,12.5037334,155.0
192,1,60,11700,Siljangade                    ,2300,55.66874499999999,12.613605,195.0
193,5,131,16400,Halldór Laxness Vej           ,2300,55.6354026,12.5805186,125.19083969465649
194,2,56,11500,Michael Strunges Vej          ,2300,55.6653673,12.5989328,205.35714285714286
195,3,121,15106,Margretheholmsvej             ,1432,55.6841196,12.6152124,124.84297520661157
196,1,38,6700,Preben Kaas' Vænge            ,2000,55.68412619999999,12.502215,176.31578947368422
197,2,89,12815,Gyngemose Parkvej             ,2860,55.725437,12.4786249,143.98876404494382
198,3,87,13760,Bygmestervej,2400,55.7062046,12.5349399,158.16091954022988
199,4,105,17495,Nygade,1164,55.6781275,12.5734453,166.61904761904762
200,2,88,12480,Strandlodsvej,2300,55.66739,12.6202099,141.8181818181818
201,3,134,19000,Drosselvej,2000,55.6917007,12.5246777,141.7910447761194
202,4,92,15362,Margretheholmsvej,1432,55.6837106,12.6153714,166.97826086956522
203,3,111,19700,Anker Heegaards Gade,1571,55.67184349999999,12.5727964,177.47747747747746
204,5,140,19500,A.C. Meyers Vænge,2450,55.6503446,12.5409203,139.28571428571428
205,4,100,13800,Hannemanns Allé,2300,55.626185,12.5762249,138.0
206,4,114,15900,Lone Kellermanns Vej,2450,55.6456252,12.5482628,139.47368421052633
207,3,79,11350,Gadelandet,2700,55.7115422,12.4809887,143.67088607594937
208,1,35,6650,Rabarbervej,2400,55.6961805,12.5240192,190.0
209,4,111,17200,Vestre Teglgade,2450,55.6531338,12.5481159,154.95495495495496
210,1,28,8300,Njalsgade,2300,55.6635534,12.5909995,296.42857142857144
211,1,32,6250,Gyngemose Parkvej,2860,55.7272197,12.4792895,195.3125
212,2,90,13900,Axel Heides Gade,2300,55.659896,12.57005,154.44444444444446
213,2,74,14500,Nyhavn,1051,55.68021820000001,12.5902059,195.94594594594594
214,3,82,12400,Ørestad Boulevard,2300,55.6403311,12.5829753,151.21951219512195
215,1,29,6150,Gyngemose Parkvej,2860,55.7272847,12.4799332,212.06896551724137
216,1,35,8000,Katrinedalsvej,2720,55.688441,12.4914759,228.57142857142858
217,6,270,40365,Margrethevej,2900,55.734451,12.573912,149.5
218,1,56,7700,Elstarvej,2500,55.6558982,12.5034846,137.5
219,4,114,15800,Cylindervej,2450,55.6523094,12.5564647,138.59649122807016
220,5,114,16650,Gyldenrisvej,2300,55.640774,12.608928,146.05263157894737
221,3,124,18750,Kronprinsessegade,1308,55.6867364,12.5841335,151.20967741935485
222,1,14,7000,Doris Lessingsvej,2300,55.6371,12.5750122,500.0
223,3,98,16800,Strandvejen,2900,55.73071110000001,12.5764389,171.42857142857142
224,4,89,16000,Snorresgade,2300,55.6658784,12.5760455,179.77528089887642
225,3,105,15200,Axel Strøbyes Vej,2500,55.6597482,12.5117821,144.76190476190476
226,3,85,16950,Applebys Plads,1411,55.671032,12.585607,199.41176470588235
227,1,20,6000,Stenderupgade,1738,55.6649236,12.5434424,300.0
228,2,61,11721,Richard Mortensens Vej,2300,55.6218405,12.5721728,192.14754098360655
229,1,39,5937,Frederikssundsvej,2700,55.7077918,12.4853417,152.23076923076923
230,1,37,7800,Peder Lykkes Vej,2300,55.65372190000001,12.6031793,210.8108108108108
231,5,161,21627,Gammel Kongevej,1850,55.6750968,12.5482709,134.32919254658384
232,1,45,10000,Azaleavej,2000,55.6712639,12.5146373,222.22222222222223
233,3,65,12905,Njalsgade,2300,55.6630951,12.5935843,198.53846153846155
234,6,169,21900,Østerbrogade,2100,55.7003765,12.5778582,129.58579881656806
235,1,31,7400,Gl. Køge Landevej,2500,55.6557304,12.5115847,238.70967741935485
236,4,86,15995,Falkevej,2400,55.69874799999998,12.53532,185.98837209302326
237,1,36,7600,Mutzuvej,2500,55.65353409999999,12.5023863,211.11111111111111
238,4,95,17000,Lundtoftegade,2200,55.6974419,12.5386965,178.94736842105263
239,1,44,9454,Svend Trøsts Vej,1912,55.67942499999998,12.5514368,214.86363636363637
240,3,79,11250,Gadelandet,2700,55.7115422,12.4809887,142.40506329113924
241,4,151,29500,Vendersgade,1363,55.68517490000001,12.5652686,195.36423841059602
242,4,97,13300,Gyngemose Parkvej,2860,55.7273179,12.474743,137.11340206185568
243,5,195,24200,Robert Jacobsens Vej,2300,55.62042820000001,12.5727968,124.1025641025641
244,2,73,11950,Ørestads Boulevard,2300,55.6361249,12.5812123,163.6986301369863
245,3,85,16100,Mariendalsvej,2000,55.6909998,12.5318338,189.41176470588235
246,2,67,11050,Børge Olsens Plads,2610,55.67117589999999,12.4728844,164.92537313432837
247,2,70,13000,Bordeauxgade,2150,55.7066719,12.5957758,185.71428571428572
248,2,53,9450,Gadelandet,2700,55.7106205,12.4839747,178.30188679245282
249,2,52,10300,Storekær,2610,55.66518240000001,12.4548829,198.07692307692307
250,3,108,17565,Nytorv,1450,55.6777785,12.5734097,162.63888888888889
251,4,136,17500,A.C. Meyers Vænge,2450,55.651292,12.5421514,128.6764705882353
252,1,32,7334,Theklavej,2400,55.70550189999999,12.5271191,229.1875
253,6,169,25000,Irlandsvej,2300,55.6434286,12.6068988,147.92899408284023
254,1,35,6700,Preben Kaas' Vænge,2000,55.68412619999999,12.502215,191.42857142857142
255,1,49,12500,Rosenvængets Hovedvej,2100,55.7013125,12.5854108,255.10204081632654
256,4,117,15500,Valby Maskinfabriksvej,2500,55.6606233,12.5126126,132.47863247863248
257,4,130,14500,Digtergangen,2860,55.7384392,12.507797,111.53846153846153
258,4,102,15475,Ørestads Boulevard,2300,55.636709,12.582897,151.7156862745098
259,1,28,8800,Njalsgade,2300,55.6635534,12.5909995,314.2857142857143
260,4,140,18600,Martha Christensens Vej,2300,55.63817479999999,12.5815966,132.85714285714286
261,1,14,5150,Rabarbervej,2400,55.6961805,12.5240192,367.85714285714283
262,1,37,7700,Lærkevej,2400,55.7017902,12.5305111,208.1081081081081
263,4,101,13752,Hannemanns Allé,2300,55.626185,12.5762249,136.15841584158414
264,5,134,18000,Else Alfelts Vej,2300,55.619128,12.5686257,134.32835820895522
265,2,33,10400,Finsensvej,2000,55.6810725,12.5214046,315.1515151515151
266,3,81,13118,Ingrid Marievej,2500,55.6567609,12.5037915,161.9506172839506
267,5,309,65000,Galionsvej,1437,55.680716,12.6021319,210.3559870550162
268,2,58,12000,Vestre Teglgade,2450,55.6531338,12.5481159,206.89655172413794
269,3,119,17900,Knabrostræde,1210,55.6779854,12.5742545,150.42016806722688
270,3,69,12800,Robert Jacobsens Vej,2300,55.6202704,12.5734617,185.5072463768116
271,1,28,7488,Jorisvej,2300,55.645948,12.6361201,267.42857142857144
272,2,55,14000,Bjelkes Allé,2200,55.6920256,12.5457104,254.54545454545453
273,3,91,12750,Kaffevej,2610,55.6764212,12.436609,140.1098901098901
274,3,97,15999,Strandlodsvej,2300,55.664589,12.6226802,164.93814432989691
275,4,102,15475,Ørestads Boulevard,2300,55.636709,12.582897,151.7156862745098
276,5,99,14000,Møllevangen,2610,55.7051143,12.4353148,141.41414141414143
277,2,66,11100,Ørestad Boulevard,2300,55.6403311,12.5829753,168.1818181818182
278,3,143,18500,Vesterbrogade,1620,55.6726718,12.5584782,129.37062937062936
279,3,90,13240,Robert Jacobsens Vej,2300,55.6215844,12.5734099,147.11111111111111
280,4,110,17250,A.C. Meyers Vænge,2450,55.6514098,12.5418409,156.8181818181818
281,3,88,14100,Flydedokken,2450,55.6552264,12.5517857,160.22727272727272
282,4,96,14000,Hannemanns Allé,2300,55.626185,12.5762249,145.83333333333334
283,3,96,14500,Martha Christensens Vej,2300,55.63817479999999,12.5815966,151.04166666666666
284,1,35,8000,Lærkevej,2400,55.7017902,12.5305111,228.57142857142858
285,2,55,10500,Møllevangen,2610,55.7051143,12.4353148,190.9090909090909
286,3,89,13800,Pladehals Allé,2450,55.6555396,12.5482691,155.0561797752809
287,4,142,25150,Frederiksholms Kanal,1220,55.6757545,12.5751119,177.11267605633802
288,3,75,12700,Gyngemose Parkvej,2860,55.7275956,12.479145,169.33333333333334
289,4,101,15750,Teglholm Tværvej,2450,55.6497034,12.5504922,155.94059405940595
290,4,129,19400,Strandslodsvej,2300,55.6645926,12.6226752,150.3875968992248
291,2,66,12900,Nordre Frihavnsgade,2100,55.7010242,12.5805371,195.45454545454547
292,2,80,12826,Poul Reichhardts Vej,2500,55.65638680000001,12.509244,160.325
293,3,161,21000,Vesterbrogade,1620,55.6726718,12.5584782,130.43478260869566
294,1,25,7500,Vesterfællevej,1750,55.6669765,12.5394927,300.0
295,2,168,24000,Amagerbrogade,2300,55.665249,12.5994277,142.85714285714286
296,1,31,7800,C.F. Richs Vej,2000,55.68671,12.5039269,251.61290322580646
297,1,32,6350,Gyngemose Parkvej,2860,55.7272197,12.4792895,198.4375
298,3,169,17000,A. F. Beyers Vej,2720,55.6907575,12.5106755,100.59171597633136
299,2,51,10200,Gadelandet,2700,55.7104602,12.4844416,200.0
300,3,122,15800,Amagerbrogade,2300,55.6644419,12.6010825,129.50819672131146
301,4,102,17195,Falkevej,2400,55.69874799999998,12.53532,168.57843137254903
302,4,97,13300,Gyngemose Parkvej,2860,55.7273179,12.474743,137.11340206185568
303,3,81,17000,Solitudevej,2200,55.68995839999998,12.5545876,209.87654320987653
304,3,108,20200,Bordeauxgade,2150,55.7065907,12.5953517,187.03703703703704
305,3,99,16500,Belvederekaj,2450,55.6561779,12.5524752,166.66666666666666
306,3,81,17000,Solitudevej,2200,55.68995839999998,12.5545876,209.87654320987653
307,1,40,8200,Peder Lykkes Vej,2300,55.65372190000001,12.6031793,205.0
308,4,165,35000,Herluf Trolles Gade,1057,55.6792567,12.5893052,212.12121212121212
309,4,109,14040,Kaffevej,2610,55.67641279999999,12.4370807,128.80733944954127
310,3,95,17950,Amager Strandvej,2300,55.6588319,12.6336433,188.94736842105263
311,1,35,7400,Gl. Køge Landevej,2500,55.6557304,12.5115847,211.42857142857142
312,2,70,10900,Else Sørensens Vej,2610,55.68368220000001,12.4586118,155.71428571428572
313,2,62,10050,Kaffevej,2610,55.6764488,12.4364167,162.09677419354838
314,4,97,16120,Faste Batteri Vej,2300,55.6644927,12.5914391,166.18556701030928
315,2,68,12500,Klareboderne,1115,55.6812487,12.5788233,183.8235294117647
316,4,107,18400,Bomhusvej,2100,55.72244,12.5577373,171.9626168224299
317,3,69,11900,Amager Landevej,2770,55.6375574,12.6189139,172.46376811594203
318,2,63,11050,Børge Olsens Plads,2610,55.67117589999999,12.4728844,175.3968253968254
319,1,35,6700,Preben Kaas' Vænge,2000,55.68412619999999,12.502215,191.42857142857142
320,1,14,5150,Rabarbervej,2400,55.6961805,12.5240192,367.85714285714283
321,3,105,15995,Havneholmen,1561,55.6601326,12.5607638,152.33333333333334
322,4,90,14200,Nadine Gordimers Vej,2300,55.63595669999999,12.5771978,157.77777777777777
323,1,43,10000,Else Alfelts Vej,2300,55.6169586,12.5663611,232.5581395348837
324,2,128,18536,Antonigade,1112,55.6804198,12.5810851,144.8125
325,3,106,18700,Amager Strandvej,2300,55.6588319,12.6336433,176.41509433962264
326,1,47,8003,Rabarbervej,2400,55.69546219999999,12.5245579,170.27659574468086
327,4,123,19000,Dyrkøb,1166,55.6790029,12.5730684,154.47154471544715
328,5,140,16500,Dea Trier Mørchs Vej,2300,55.6364724,12.5812246,117.85714285714286
329,4,103,15500,Kenny Drews Vej,2450,55.6448471,12.5517397,150.48543689320388
330,3,107,17495,Nygade,1164,55.6781275,12.5734453,163.50467289719626
331,4,94,13700,Hannemanns Allé,2300,55.626185,12.5762249,145.74468085106383
332,1,35,7904,Svend Trøsts Vej,1912,55.67942499999998,12.5514368,225.82857142857142
333,3,73,12200,Rødovre Port,2610,55.66549209999999,12.4585376,167.12328767123287
334,4,96,16500,Else Alfelts Vej,2300,55.6194089,12.5679844,171.875
335,5,152,27500,Oscar Ellingers Vej,2000,55.6881132,12.5157875,180.92105263157896
336,3,98,13758,Jernæblevej,2500,55.66084129999999,12.5030899,140.3877551020408
337,1,49,8500,Nordens Plads,2000,55.67061899999998,12.501294,173.46938775510205
338,4,177,26560,Nytorv,1450,55.6777785,12.5734097,150.05649717514123
339,1,37,7800,Nordens Plads,2000,55.67107499999998,12.501987,210.8108108108108
340,1,28,7900,Njalsgade,2300,55.6635534,12.5909995,282.14285714285717
341,2,62,10050,Kaffevej,2610,55.6764488,12.4364167,162.09677419354838
342,4,96,13350,Robert Jacobsens Vej,2300,55.6172555,12.5728812,139.0625
343,1,41,7900,Rødovre Port,2610,55.6652533,12.4572514,192.6829268292683
344,5,126,16379,Robert Jacobsens Vej,2300,55.6213523,12.5724367,129.9920634920635
345,4,112,15000,Ørestads Boulevard,2300,55.6383592,12.5836597,133.92857142857142
346,1,29,7400,Poul Bundgaards Vej,2500,55.6591062,12.5100733,255.17241379310346
347,4,97,13300,Gyngemose Parkvej,2860,55.7273179,12.474743,137.11340206185568
348,2,43,10200,Poppelstykket,2450,55.6513066,12.5111867,237.2093023255814
349,2,69,17000,Fadet,1799,55.6651981,12.533776,246.3768115942029
350,4,108,16500,Else Afelts Vej,2300,55.6194089,12.5679844,152.77777777777777
351,3,103,20900,Halmtorvet,1700,55.6681457,12.556642,202.9126213592233
352,1,51,8250,Støberigade,2450,55.6495537,12.5514972,161.76470588235293
353,3,103,14717,Sundholmsvej,2300,55.662119,12.5964019,142.88349514563106
354,2,71,11000,Frederikssundsvej,2700,55.71214740000001,12.4720823,154.92957746478874
355,3,96,20000,Fadet,1799,55.6654905,12.5312492,208.33333333333334
356,1,5,5000,Sjælør Boulevard,2500,55.6542461,12.5249733,1000.0
357,3,92,15640,Ben Websters Vej,2450,55.6465652,12.5520061,170.0
358,5,109,16200,Clara Pontoppidans Vej,2500,55.6580394,12.5123552,148.62385321100916
359,5,114,16650,Gyldenrisvej,2300,55.6414026,12.609965,146.05263157894737
360,3,106,16900,Oscar Pettifords Vej,2450,55.64702399999998,12.555362,159.43396226415095
361,1,47,9200,Tagensvej,2200,55.7053782,12.5434519,195.74468085106383
362,1,88,18000,Dronningens Tværgade,1302,55.6841189,12.5853513,204.54545454545453
363,4,113,19779,Theodore Roosevelts Vej,2450,55.6588408,12.5593666,175.0353982300885
364,1,45,11000,.sal,1850,55.675918,12.5431115,244.44444444444446
365,3,88,13900,Tagensvej,2200,55.7052857,12.543816,157.95454545454547
366,1,5,5000,Sjælør Boulevard,2500,55.6542461,12.5249733,1000.0
367,2,43,9600,Poppelstykket,2450,55.6515557,12.5119233,223.25581395348837
368,3,95,14900,Michael Strunges Vej,2300,55.6376636,12.5807748,156.8421052631579
369,3,94,17800,Applebys Plads,1411,55.670568,12.585183,189.36170212765958
370,4,114,16249,Elstarvej,2500,55.6569091,12.5014271,142.53508771929825
371,3,107,18500,Billedvej,2150,55.7070983,12.594016,172.89719626168224
372,1,44,9000,Søndre Fasanvej,2500,55.6678805,12.5169621,204.54545454545453
373,4,173,28800,Bag Elefanterne,1799,55.6675632,12.5317266,166.47398843930637
374,1,37,7800,Domus Vista,2000,55.6710648,12.5013937,210.8108108108108
375,1,49,8500,Domus Vista,2000,55.6710648,12.5013937,173.46938775510205
376,1,102,17500,Amerika Plads,2100,55.7002933,12.5951914,171.5686274509804
377,4,134,17250,Auroravej,2610,55.6761934,12.4719775,128.73134328358208
378,1,32,6250,Gyngemose Parkvej,2860,55.7272197,12.4792895,195.3125
379,2,62,15250,Pasteursvej,1799,55.6655781,12.5338493,245.96774193548387
380,2,158,25000,Galionsvej,1437,55.6797854,12.6034251,158.22784810126583
381,4,120,16575,Glamsbjergvej,2770,55.6339304,12.5970708,138.125
382,3,83,12600,Irmavej,2610,55.67698309999999,12.4362041,151.80722891566265
383,4,134,17250,Auroravej,2610,55.6761934,12.4719775,128.73134328358208
384,5,152,22000,Dronningens Tværgade,1302,55.6841189,12.5853513,144.73684210526315
385,1,39,8510,Svend Trøsts Vej,1912,55.67942499999998,12.5514368,218.2051282051282
386,3,82,13900,Else Alfelts Vej,2300,55.6168704,12.5660394,169.5121951219512
387,4,130,16500,Ved Sportspladsen,2610,55.7071051,12.4452805,126.92307692307692
388,5,130,23300,Anker Heegaards Gade,1571,55.6715493,12.5733981,179.23076923076923
389,1,35,8200,Teglholmsgade,2450,55.6521553,12.5492342,234.28571428571428
390,2,48,11400,Tagensvej,2200,55.7052857,12.543816,237.5
391,3,107,24500,Store Kongensgade,1264,55.6861975,12.5893134,228.97196261682242
392,4,133,22167,Billedvej,2150,55.7070983,12.594016,166.66917293233084
393,1,37,8195,Nordre Fasanvej,2000,55.6953574,12.5347536,221.48648648648648
394,1,35,6650,Rabarbervej,2400,55.69525160000001,12.5235729,190.0
395,3,102,18380,Nørrebrogade,2200,55.6886018,12.5594177,180.19607843137254
396,1,55,8800,Støberigade,2450,55.6495537,12.5514972,160.0
397,2,53,10350,Gadelandet,2700,55.7110946,12.4792902,195.28301886792454
398,4,103,14000,Gadelandet,2700,55.7112397,12.4802508,135.92233009708738
399,3,77,18500,Sofiegade,1418,55.6713957,12.5898148,240.25974025974025
400,3,119,21000,Dampfærgevej,2100,55.6977766,12.5949786,176.47058823529412
401,3,84,13900,Håbets Allé,2700,55.7037954,12.5035542,165.47619047619048
402,1,47,8018,Rabarbervej,2400,55.69546219999999,12.5245579,170.59574468085106
403,4,118,17900,Ved Stigbordene,2450,55.64423499999998,12.5490012,151.6949152542373
404,4,93,15529,Margretheholmsvej,1432,55.68535010000001,12.6154643,166.9784946236559
405,2,43,9800,Rødovre Port,2610,55.66509569999998,12.4561535,227.90697674418604
406,4,117,19566,Jane Addams Vej,2450,55.6582265,12.5605041,167.23076923076923
407,2,52,11400,Michael Strunges Vej,2300,55.6378413,12.5811397,219.23076923076923
408,2,60,11800,Emma Gads Vej,2300,55.6349421,12.579119,196.66666666666666
409,2,62,11000,Kaffevej,2610,55.6764488,12.4364167,177.41935483870967
410,4,93,13700,Gadelandet,2700,55.7115422,12.4809887,147.31182795698925
411,4,110,16000,Ved Stigbordene,2450,55.6444675,12.5482247,145.45454545454547
412,1,43,10000,Else Alfelts Vej,2300,55.6165207,12.5662034,232.5581395348837
413,4,117,16946,Poppelstykket,2450,55.652386,12.5119906,144.83760683760684
414,4,108,14200,Else Alfelts Vej,2300,55.6186733,12.5677053,131.4814814814815
415,2,79,14015,C V E Knuths Vej,2900,55.73273889999999,12.5617231,177.40506329113924
416,2,142,24000,Petersborgvej,2100,55.7009546,12.5818511,169.01408450704224
417,4,114,16995,Glamsbjergvej,2770,55.6334885,12.5973234,149.07894736842104
418,3,108,18750,Rådhuspladsen,1550,55.676448,12.5696853,173.61111111111111
419,6,276,40000,Bredgade,1260,55.6864627,12.5918263,144.92753623188406
420,3,110,17500,Borrebyvej,2700,55.6978981,12.4938518,159.0909090909091
421,5,185,31000,Store Kongensgade,1264,55.68718269999999,12.590373,167.56756756756758
422,3,69,12900,Amager Landevej,2770,55.6375594,12.6189119,186.95652173913044
423,2,70,12750,Else Alfelts Vej,2300,55.6184668,12.5667396,182.14285714285714
424,6,130,18800,Vigerslev Alle,2500,55.6576533,12.488401,144.6153846153846
425,1,35,8000,Katrinedalsvej,2720,55.6884355,12.4915581,228.57142857142858
426,5,192,29598,Margrethevej,2900,55.734451,12.573912,154.15625
427,2,194,32000,Tuborg Bakkedrag,2900,55.7269719,12.5776945,164.94845360824743
428,2,105,17087,Venøgade,2100,55.7125374,12.564038,162.73333333333332
430,4,223,30000,Lille Strandstræde,1254,55.6805911,12.5896164,134.52914798206277
431,2,73,11775,Asger Jorns Allé,2300,55.6198497,12.5742963,161.3013698630137
432,1,32,6350,Gyngemose Parkvej,2860,55.7272197,12.4792895,198.4375
433,4,103,14000,Gadelandet,2700,55.7112397,12.4802508,135.92233009708738
434,1,48,9700,Siljangade,2300,55.668717,12.61303,202.08333333333334
435,3,143,19900,Islands Brygge,2300,55.6630647,12.5715268,139.16083916083917
436,2,76,11650,Gladsaxevej,2860,55.73960899999999,12.48682,153.28947368421052
437,4,104,14200,Børge Olsens Plads,2610,55.67117589999999,12.4728844,136.53846153846155
438,4,113,16900,Vestre Teglgade,2450,55.6531338,12.5481159,149.55752212389382
439,4,129,16100,Irmavej,2610,55.6770177,12.4355482,124.8062015503876
440,2,71,13500,Else Alfelts Vej,2300,55.6168704,12.5660394,190.14084507042253
441,4,162,32000,Bredgade,1260,55.68629259999999,12.5916465,197.53086419753086
442,5,120,18910,Poul Reumert Vej,2500,55.657128,12.5099171,157.58333333333334
443,2,110,19000,Nyhavn,1051,55.6797463,12.5897147,172.72727272727272
444,4,103,14800,Else Afelts Vej,2300,55.6194089,12.5679844,143.6893203883495
445,3,71,12600,Gyngemose Parkvej,2860,55.7275956,12.479145,177.46478873239437
446,4,101,14400,C.F. Møllers Allé,2300,55.6354348,12.5771515,142.5742574257426
447,1,38,9300,Øresundsvej,2300,55.6606262,12.6136963,244.73684210526315
448,3,86,14708,Njalsgade,2300,55.6630951,12.5935843,171.02325581395348
449,2,111,16409,Dirch Passers Allé,2000,55.6848351,12.5011087,147.82882882882882
450,3,124,18900,Amerika Plads,2100,55.6991961,12.5936566,152.41935483870967
451,2,74,12950,Etta Camerons Vej,2450,55.6461064,12.5473264,175.0
452,4,118,15495,Auroravej,2610,55.6761934,12.4719775,131.3135593220339
453,3,69,13100,Fanny Jensens Plads,2450,55.650043,12.53649,189.85507246376812
454,3,125,22000,Vesterbrogade,1660,55.6723452,12.5522773,176.0
455,3,107,20800,Anker Heegaards Gade,1571,55.67184349999999,12.5727964,194.39252336448598
456,4,128,18350,Parmagade,2300,55.652689,12.6126369,143.359375
457,4,106,16300,Alliancevej,2450,55.6488185,12.5519254,153.77358490566039
458,3,91,15825,Alliancevej,2450,55.647958,12.5532168,173.9010989010989
459,1,38,9300,Øresundsvej,2300,55.6606262,12.6136963,244.73684210526315
460,3,88,13600,Cylindervej,2450,55.6523094,12.5564647,154.54545454545453
461,5,93,14535,Brønshøjholms Alle,2700,55.7053392,12.5013934,156.29032258064515
462,2,91,17500,Anker Heegaards Gade,1571,55.67184349999999,12.5727964,192.30769230769232
463,2,68,10600,Gadelandet,2700,55.7115422,12.4809887,155.88235294117646
464,1,90,18500,Flaskehalsen,1799,55.6649338,12.5358033,205.55555555555554
465,2,64,10450,Else Alfelts Vej,2300,55.6174184,12.5663495,163.28125
466,5,123,16705,Robert Jacobsens Vej,2300,55.6217108,12.5729561,135.8130081300813
467,4,93,14150,Gadelandet,2700,55.711801,12.480088,152.1505376344086
468,5,191,25000,Nybrogade,1203,55.67620650000001,12.5758119,130.89005235602093
469,2,64,11250,Else Alfelts Vej,2300,55.6174184,12.5663495,175.78125
470,3,90,13630,Glostervej,2500,55.653873,12.5036409,151.44444444444446
471,4,115,15195,Ringholmvej,2700,55.6979558,12.505872,132.1304347826087
472,3,66,13300,Robert Jacobsens Vej,2300,55.6205107,12.5735633,201.5151515151515
473,2,69,12500,Omøgade,2100,55.7117107,12.5633948,181.15942028985506
474,4,96,13900,Gadelandet,2700,55.711801,12.480088,144.79166666666666
475,2,71,11525,Irmavej,2610,55.6770177,12.4355482,162.32394366197184
476,5,211,29935,Aurehøjvej,2900,55.73531,12.5743569,141.87203791469193
477,1,43,8385,Frederikssundsvej,2400,55.7012191,12.5357119,195.0
478,4,213,34613,Amaliegade,1256,55.68272940000001,12.592367,162.50234741784038
479,4,111,16600,Strandlodsvej,2300,55.66315549999998,12.6238577,149.54954954954954
480,3,113,14300,Ørestad Boulevard,2300,55.6403311,12.5829753,126.54867256637168
481,3,69,14000,Njalsgade,2300,55.6635534,12.5909995,202.8985507246377
482,1,28,8200,Njalsgade,2300,55.6635534,12.5909995,292.85714285714283
483,3,81,13332,Summerredvej,2500,55.66084129999999,12.5030899,164.59259259259258
484,4,99,15786,Summerredvej,2500,55.66084129999999,12.5030899,159.45454545454547
485,4,97,15572,Jernæblevej,2500,55.66084129999999,12.5030899,160.53608247422682
486,2,75,11800,Ørestads Boulevard,2300,55.6199038,12.5750425,157.33333333333334
487,3,101,14517,Robert Jacobsens Vej,2300,55.6214217,12.5734165,143.73267326732673
488,1,31,7400,Gl. Køge Landevej,2500,55.6557304,12.5115847,238.70967741935485
489,2,59,11250,Ørestads Boulevard,2300,55.636709,12.582897,190.67796610169492
490,4,92,15362,Margretheholmsvej,1432,55.685241,12.6153608,166.97826086956522
491,4,106,14861,Robert Jacobsens Vej,2300,55.6178099,12.572924,140.19811320754718
492,3,125,22500,Hellerupvej,2900,55.7328086,12.565759,180.0
493,2,62,10950,Kaffevej,2610,55.6764488,12.4364167,176.61290322580646
494,4,132,24400,Alliancevej,2450,55.6484742,12.5528649,184.84848484848484
495,1,32,6350,Gyngemose Parkvej,2860,55.7272197,12.4792895,198.4375
496,2,76,11700,Aage Knudsens Strøg,2610,55.6889548,12.4492456,153.94736842105263
497,5,114,15900,Asger Jorns Allé,2300,55.6194587,12.5724371,139.47368421052633
498,1,33,7400,Gl. Køge Landevej,2500,55.6557304,12.5115847,224.24242424242425
499,1,36,8200,Lærkevej,2400,55.7017902,12.5305111,227.77777777777777
500,2,108,22900,Tuborg Bakkedrag,2900,55.7269719,12.5776945,212.03703703703704
501,3,66,13300,Robert Jacobsens Vej,2300,55.6183723,12.5731109,201.5151515151515
502,1,39,8510,Svend Trøsts Vej,1912,55.67942499999998,12.5514368,218.2051282051282
503,1,87,12000,Hvidovrevej,2610,55.66550650000001,12.474306,137.93103448275863
504,3,108,17565,Nytorv,1450,55.6777785,12.5734097,162.63888888888889
505,3,121,20200,Nytorv,1450,55.6778296,12.5732055,166.94214876033058
506,1,43,10200,Else Alfelts Vej,2300,55.6165207,12.5662034,237.2093023255814
507,3,178,26000,Kronprinsensgade,1114,55.6806323,12.5792638,146.06741573033707
508,3,108,14300,Martha Christensens Vej,2300,55.63817479999999,12.5815966,132.40740740740742
509,3,145,30000,Sundkaj,2150,55.70938959999999,12.5992513,206.89655172413794
510,3,108,16300,Gammel Køge Landevej,2500,55.6597608,12.515062,150.92592592592592
511,1,35,6700,Preben Kaas' Vænge,2000,55.68412619999999,12.502215,191.42857142857142
512,6,231,31451,Jagtvej,2100,55.7079811,12.5725324,136.15151515151516
513,5,131,19500,Alliancevej,2450,55.64826249999999,12.5526494,148.85496183206106
514,3,102,14000,Børge Olsens Plads,2610,55.67117589999999,12.4728844,137.2549019607843
515,1,50,8240,Frederikssundsvej,2400,55.7012191,12.5357119,164.8
516,3,103,22500,Wilders Plads,1403,55.675466,12.5935361,218.44660194174756
517,3,96,17700,Marmorvej,2100,55.70434729999998,12.5939842,184.375
518,4,126,20008,Theodore Roosevelts Vej,2450,55.6490514,12.5352729,158.79365079365078
519,4,103,17975,Alliancevej,2450,55.6478803,12.5529079,174.51456310679612
520,1,28,8500,Njalsgade,2300,55.6635534,12.5909995,303.57142857142856
521,2,74,12180,Asger Jorns Allé,2300,55.6198497,12.5742963,164.59459459459458
522,3,123,13775,Ørestads Boulevard,2300,55.636709,12.582897,111.99186991869918
523,1,43,10300,Else Alfelts Vej,2300,55.6165207,12.5662034,239.53488372093022
525,2,114,15470,Ørestads Boulevard,2300,55.6345623,12.5820972,135.7017543859649
526,3,93,12900,Hannemanns Allé,2300,55.626185,12.5762249,138.70967741935485
527,2,88,13000,Tagensvej,2200,55.7053782,12.5434519,147.72727272727272
528,3,167,32000,Bredgade,1260,55.68629259999999,12.5916465,191.61676646706587
529,2,149,26900,Islands Brygge,2300,55.657744,12.5674161,180.53691275167785
530,1,35,8200,Teglholmsgade,2450,55.6521553,12.5492342,234.28571428571428
531,1,31,6250,Gyngemose Parkvej,2860,55.7272847,12.4799332,201.61290322580646
532,3,85,13300,Kaffevej,2610,55.6764488,12.4364167,156.47058823529412
533,2,69,12700,Emma Gads Vej,2300,55.6383253,12.5809902,184.05797101449275
534,4,122,20500,Marmorvej,2100,55.703983,12.5963263,168.0327868852459
535,1,43,9192,Svend Trøsts Vej,1912,55.67942499999998,12.5514368,213.7674418604651
536,2,76,13170,Islands Brygge,2300,55.6618119,12.5696679,173.28947368421052
537,5,128,19733,Peter Bangs Vej,2000,55.678026,12.494112,154.1640625
538,4,222,38200,Nyhavn,1051,55.6806338,12.588782,172.07207207207207
539,2,62,10950,Kaffevej,2610,55.6764488,12.4364167,176.61290322580646
540,1,43,10300,Else Alfelts Vej,2300,55.6165207,12.5662034,239.53488372093022
541,3,95,16950,A.C. Meyers Vænge,2450,55.651292,12.5421514,178.42105263157896
542,3,129,20500,Serridslevvej,2100,55.7062895,12.5730619,158.91472868217053
543,4,194,26152,Købmagergade,1150,55.68022329999999,12.5786041,134.8041237113402
544,4,95,13900,Gadelandet,2700,55.711801,12.480088,146.31578947368422
545,2,104,15000,Gallionsvej,1434,55.6795334,12.6031002,144.23076923076923
546,3,90,13474,Gyngemose Parkvej,2860,55.72606219999999,12.478646,149.7111111111111
547,4,88,14950,Kenny,2450,55.645205,12.5505185,169.88636363636363
548,4,88,14150,Gadelandet,2700,55.7115422,12.4809887,160.79545454545453
549,5,125,16000,Else Alfelts Vej,2300,55.6165207,12.5662034,128.0
550,3,65,14032,Njalsgade,2300,55.6630951,12.5935843,215.87692307692308
551,3,142,17875,Nørregårdsbakken,2610,55.6889548,12.4492456,125.88028169014085
552,3,77,14150,Else Alfelts Vej,2300,55.6213288,12.5687915,183.76623376623377
553,1,50,10000,Siljangade,2300,55.6683925,12.6129895,200.0
554,6,231,31451,Jagtvej,2100,55.7079811,12.5725324,136.15151515151516
555,1,41,10200,Vanløse Allé,2720,55.6884627,12.4943031,248.78048780487805
556,1,32,7600,Gl. Køge Landevej,2500,55.6557304,12.5115847,237.5
557,2,52,10500,Gadelandet,2700,55.7104602,12.4844416,201.92307692307693
558,2,62,10050,Kaffevej,2610,55.6764488,12.4364167,162.09677419354838
559,4,134,20150,Artillerivej,2300,55.6534925,12.567663,150.37313432835822
560,1,60,14000,Jacob Erlandsensgade,2100,55.7075135,12.5762157,233.33333333333334
561,3,175,21000,Strandboulevarden,2100,55.70220149999999,12.5854249,120.0
562,2,62,11100,Kaffevej,2610,55.6764488,12.4364167,179.03225806451613
563,3,89,13400,Else Alfelts Vej,2300,55.6165207,12.5662034,150.56179775280899
564,3,68,12050,Gadelandet,2700,55.7110946,12.4792902,177.2058823529412
565,3,97,12900,Næsbyvej,2610,55.68367019999999,12.4539491,132.98969072164948
566,2,43,10300,Poppelstykket,2450,55.6513066,12.5111867,239.53488372093022
567,3,83,12500,Irmavej,2610,55.6768296,12.4364329,150.6024096385542
568,4,222,39600,Nyhavn,1051,55.6806338,12.588782,178.3783783783784
569,4,92,14100,Else Alfelts Vej,2300,55.6199784,12.5687888,153.2608695652174
570,2,32,10400,Finsensvej,2000,55.68118870000001,12.5186236,325.0
571,2,67,12834,Theodore Roosevelts Vej,2450,55.6490514,12.5352729,191.55223880597015
572,2,73,17000,Midtermolen,2100,55.6973271,12.5977247,232.87671232876713
573,3,92,14200,Pladehals Allé,2450,55.65626529999999,12.5508607,154.34782608695653
574,5,126,16500,Gadelandet,2700,55.7115422,12.4809887,130.95238095238096
575,4,148,40352,Sorgenfrigade,2200,55.69572640000002,12.5451098,272.64864864864865
576,8,288,27500,H.C. Andersens Boulevard,1553,55.6723128,12.5755243,95.48611111111111
577,3,113,14750,Ørestad Boulevard,2300,55.6403311,12.5829753,130.53097345132744
578,3,83,12300,Gadelandet,2700,55.7115422,12.4809887,148.19277108433735
579,2,156,38500,Overgaden Neden Vandet,1414,55.6712751,12.5881021,246.7948717948718
580,3,115,20000,Tom Kristensens Vej,2300,55.6608551,12.5860188,173.91304347826087
581,4,107,13900,Halldór Laxness Vej,2300,55.6357535,12.5803116,129.90654205607476
582,5,153,17150,Islev Have,2610,55.7053399,12.4349145,112.09150326797386
583,4,97,14150,Gadelandet,2700,55.711801,12.480088,145.8762886597938
584,4,118,17700,Poul Hartlings Gade,2300,55.659795,12.5707249,150.0
585,3,84,13600,Else Alfelts Vej,2300,55.6166712,12.5659635,161.9047619047619
586,3,76,13400,Emma Gads Vej,2300,55.6383149,12.5810963,176.31578947368422
587,1,47,8916,Frederikssundsvej,2400,55.7012191,12.5357119,189.70212765957447
588,1,31,10700,Store Kongensgade,1264,55.686301,12.5895689,345.16129032258067
589,1,35,8222,Svend Trøsts Vej,1912,55.67942499999998,12.5514368,234.9142857142857
590,4,89,15300,Fanny Jensens Plads,2450,55.650152,12.536134,171.91011235955057
591,4,100,17200,Michael Strunges Vej,2300,55.6377956,12.5818321,172.0
592,3,91,14000,Emma Gads Vej,2300,55.6378427,12.580475,153.84615384615384
593,2,48,11100,Tagensvej,2200,55.7053782,12.5434519,231.25
594,3,79,11250,Gadelandet,2700,55.7115422,12.4809887,142.40506329113924
595,1,44,9000,Søndre Fasanvej,2500,55.6678805,12.5169621,204.54545454545453
596,4,125,15750,Amagerbrogade,2300,55.646049,12.6148433,126.0
597,4,98,14000,Gunnekær,2610,55.6824224,12.4545671,142.85714285714286
598,4,103,13737,Kaffevej,2610,55.6764212,12.436609,133.36893203883494
599,3,83,12600,Irmavej,2610,55.6768504,12.4362196,151.80722891566265
600,2,65,10850,Else Alfelts Vej,2300,55.6174184,12.5663495,166.92307692307693
601,4,142,24950,Frederiksholms Kanal,1220,55.6757545,12.5751119,175.70422535211267
602,1,28,7930,Jorisvej,2300,55.645948,12.6361201,283.2142857142857
603,2,80,11495,Møllevangen,2610,55.70502029999999,12.4332312,143.6875
604,2,73,11495,Møllevangen,2610,55.70502029999999,12.4332312,157.46575342465752
605,3,179,24395,Frederiksborggade,1360,55.683237,12.5730659,136.2849162011173
606,4,106,14100,Gunnekær,2610,55.6823339,12.4555474,133.0188679245283
607,1,66,11200,Robert Jacobsens Vej,2300,55.6170201,12.5720075,169.6969696969697
608,4,101,15350,Else Alfelts Vej,2300,55.6184668,12.5667396,151.98019801980197
609,3,83,12300,Gadelandet,2700,55.7115422,12.4809887,148.19277108433735
610,2,124,25000,Store Kongensgade,1264,55.684587,12.5876529,201.61290322580646
611,3,89,13600,Pladehals Allé,2450,55.6555135,12.5478871,152.80898876404495
612,2,81,18500,Gærtorvet,1799,55.66745599999999,12.531951,228.39506172839506
613,3,68,12050,Gadelandet,2700,55.7110946,12.4792902,177.2058823529412
614,3,84,14500,Ørestads Boulevard,2300,55.6398911,12.5829104,172.61904761904762
615,2,82,12850,Teglholmsgade,2450,55.6524298,12.5454418,156.70731707317074
616,3,96,13900,Belvederekaj,2450,55.6551698,12.5528129,144.79166666666666
617,1,38,9300,Øresundsvej,2300,55.6606262,12.6136963,244.73684210526315
618,3,90,14100,Axel Strøbyes Vej,2500,55.6595393,12.5107216,156.66666666666666
619,4,93,13750,Korsdalsvej,2610,55.67595439999998,12.4345681,147.8494623655914
620,4,106,14100,Gunnekær,2610,55.6821946,12.4551941,133.0188679245283
621,5,153,17150,Islev Have,2610,55.7053399,12.4349145,112.09150326797386
622,5,139,18995,Auroravej,2610,55.6761934,12.4719775,136.6546762589928
623,4,112,16800,Mørkhøjvej,2860,55.7272128,12.4727846,150.0
624,2,71,11795,Ringholmvej,2700,55.6978078,12.5050491,166.1267605633803
625,3,96,15084,Theodore Roosevelts Vej,2450,55.6490514,12.5352729,157.125
626,2,85,17700,EDISONSVEJ,1856,55.6772129,12.5374067,208.23529411764707
627,3,90,14100,Pladehals Allé,2450,55.65614,12.5505884,156.66666666666666
628,2,43,10250,Poppelstykket,2450,55.6515557,12.5119233,238.37209302325581
629,5,184,29992,H.C. Ørsteds Vej,1879,55.6844562,12.5511643,163.0
630,2,156,38500,Overgaden Neden Vandet,1414,55.6712751,12.5881021,246.7948717948718
631,3,92,14000,Vestre Teglgade,2450,55.6550887,12.5478424,152.17391304347825
632,3,95,17400,Marmorvej,2100,55.70416119999999,12.5967695,183.1578947368421
633,4,250,35800,Nyborggade,2100,55.7096154,12.5784702,143.2
634,3,80,13350,Else Alfelts Vej,2300,55.6174184,12.5663495,166.875
635,3,134,23500,Christian Winthers vej,1860,55.680604,12.5343078,175.37313432835822
636,5,122,25000,Strandvejen,2900,55.74175810000001,12.5788831,204.91803278688525
637,2,50,10500,Gadelandet,2700,55.7110946,12.4792902,210.0
638,3,89,13600,Pladehals Allé,2450,55.6555135,12.5478871,152.80898876404495
639,4,99,16536,Faste Batteri Vej,2300,55.6644927,12.5914391,167.03030303030303
640,4,95,13600,Irmavej,2610,55.6770283,12.4365878,143.1578947368421
641,3,68,12100,Gadelandet,2700,55.7110946,12.4792902,177.94117647058823
642,4,93,14900,Robert Jacobsens Vej,2300,55.6194679,12.5725148,160.21505376344086
643,1,28,7926,Jorisvej,2300,55.645948,12.6361201,283.07142857142856
644,2,107,19000,Herluf Trolles Gade,1052,55.6787562,12.5906441,177.57009345794393
645,5,133,18700,Else Alfelts Vej,2300,55.6180045,12.5665812,140.6015037593985
646,4,114,15400,Cylindervej,2450,55.6523094,12.5564647,135.08771929824562
647,3,69,13650,Oldenborggade,2300,55.664898,12.611405,197.82608695652175
648,2,53,11100,Ørestads Boulevard,2300,55.636709,12.582897,209.43396226415095
649,2,59,11300,Ørestads Boulevard,2300,55.636709,12.582897,191.52542372881356
650,4,117,21000,Borgmester Jensens Allé,2100,55.7065271,12.5727084,179.48717948717947
651,4,168,21950,H.C.,1553,55.67417270000001,12.5701383,130.6547619047619
652,2,67,12500,Etta Camerons Vej,2450,55.64548809999999,12.5457852,186.56716417910448
653,2,64,10550,Else Alfelts Vej,2300,55.6174184,12.5663495,164.84375
654,2,110,19000,Strandvejen,2900,55.7336298,12.5749077,172.72727272727272
655,3,89,13300,Else Alfelts Vej,2300,55.6174425,12.5681058,149.43820224719101
656,4,100,16995,Teglholmsgade,2450,55.6527296,12.5454339,169.95
657,5,126,14800,Hyld Ager,2770,55.60709,12.593329,117.46031746031746
658,5,265,35000,Store Kongensgade,1264,55.6861282,12.5892638,132.0754716981132
659,4,136,18900,Glostervej,2500,55.6539886,12.5045368,138.97058823529412
660,4,103,14950,Else Alfelts Vej,2300,55.6194089,12.5679844,145.14563106796118
661,6,139,16900,Else Sørensens Vej,2610,55.68368220000001,12.4586118,121.58273381294964
662,1,162,22275,Nørrebrogade,2200,55.6946944,12.5488979,137.5
663,2,62,10950,Kaffevej,2610,55.6764488,12.4364167,176.61290322580646
664,4,118,17200,Ved Stigbordene,2450,55.6441232,12.5494484,145.76271186440678
665,4,88,13850,Gadelandet,2700,55.7115422,12.4809887,157.38636363636363
666,9,365,59500,Sankt Annæ Plads,1250,55.6822485,12.5898895,163.013698630137
667,4,115,20100,Alliancevej,2450,55.647958,12.5532168,174.7826086956522
668,4,117,19176,Theodore Roosevelts Vej,2450,55.6490514,12.5352729,163.89743589743588
669,4,113,15595,Ringholmvej,2700,55.697421,12.5051432,138.00884955752213
670,1,36,8393,Svend Trøsts Vej,1912,55.67942499999998,12.5514368,233.13888888888889
671,2,29,10600,Finsensvej,2000,55.68118870000001,12.5186236,365.51724137931035
672,4,117,21000,Borgmester Jensens Allé,2100,55.7065271,12.5727084,179.48717948717947
673,2,82,12850,Teglholmsgade,2450,55.6524298,12.5454418,156.70731707317074
674,1,38,9300,Øresundsvej,2300,55.6606262,12.6136963,244.73684210526315
675,4,136,18900,Glostervej,2500,55.6539886,12.5045368,138.97058823529412
676,4,101,13957,Hannemanns Allé,2300,55.626185,12.5762249,138.1881188118812
677,2,74,10995,Møllevangen,2610,55.7051143,12.4353148,148.5810810810811
678,3,119,19240,Marguerite Vibys Plads,2000,55.6838768,12.5040415,161.68067226890756
679,3,67,13700,Halldór Laxness Vej,2300,55.637524,12.5814868,204.47761194029852
680,3,76,13600,Emma Gads Vej,2300,55.6383149,12.5810963,178.94736842105263
681,3,114,14800,Bygården,2700,55.71770009999998,12.4878235,129.82456140350877
682,3,97,12900,Næsbyvej,2610,55.68367019999999,12.4539491,132.98969072164948
683,2,111,18520,Islands Brygge,2300,55.6618119,12.5696679,166.84684684684686
684,2,43,10250,Poppelstykket,2450,55.6515557,12.5119233,238.37209302325581
685,1,32,7334,Theklavej,2400,55.70550189999999,12.5271191,229.1875
686,1,162,22275,Nørrebrogade,2200,55.6946944,12.5488979,137.5
687,3,76,13400,Emma Gads Vej,2300,55.6383149,12.5810963,176.31578947368422
688,4,100,17200,Michael Strunges Vej,2300,55.6377956,12.5818321,172.0
689,3,91,14000,Emma Gads Vej,2300,55.6378427,12.580475,153.84615384615384
690,2,52,10100,Gadelandet,2700,55.7104602,12.4844416,194.23076923076923
691,1,28,7927,Jorisvej,2300,55.645948,12.6361201,283.10714285714283
692,2,141,30000,Strandgade,1401,55.67720509999998,12.5965392,212.7659574468085
693,3,79,11250,Gadelandet,2700,55.7115422,12.4809887,142.40506329113924
694,1,44,9000,Søndre Fasanvej,2500,55.6678805,12.5169621,204.54545454545453
695,2,140,27000,Baunegårdsvej,2900,55.740025,12.5519331,192.85714285714286
696,2,43,11000,Tagensvej,2200,55.7052857,12.543816,255.8139534883721
697,2,79,13825,Irmavej,2610,55.6770177,12.4355482,175.0
698,2,129,22500,Pakhusvej,2100,55.6975083,12.5935901,174.41860465116278
699,2,68,11400,Gunnekær,2610,55.68256179999998,12.4561229,167.64705882352942
700,4,104,17200,Teglholmens Østkaj,2450,55.64917459999998,12.5549727,165.3846153846154
701,2,148,22000,Marskensgade,2100,55.7070483,12.5761134,148.64864864864865
702,3,105,14300,Irmavej,2610,55.6770177,12.4355482,136.1904761904762
703,2,64,10350,Else Alfelts Vej,2300,55.6174184,12.5663495,161.71875
704,2,57,11700,Emma Gads Vej,2300,55.6383149,12.5810963,205.26315789473685
705,4,165,35000,Herluf Trolles Gade,1052,55.6792378,12.5892065,212.12121212121212
706,4,111,17200,Vestre Teglgade,2450,55.6531338,12.5481159,154.95495495495496
707,1,35,8250,Katrinedalsvej,2720,55.688441,12.4914759,235.71428571428572
708,4,103,15100,Ørestads Boulevard,2300,55.636709,12.582897,146.60194174757282
709,4,102,14000,Gadelandet,2700,55.7112397,12.4802508,137.2549019607843
710,2,91,13484,Theodore Roosevelts Vej,2450,55.6490514,12.5352729,148.17582417582418
711,3,108,13400,Gladsaxevej,2860,55.7387222,12.4888173,124.07407407407408
712,3,100,14600,Andrea Brochmanns Gade,2450,55.650208,12.533693,146.0
713,2,64,11350,Else Alfelts Vej,2300,55.6174184,12.5663495,177.34375
714,3,192,100000,Martin Luther Kings Vej,2450,55.657782,12.5621198,520.8333333333334
715,4,102,16800,Teglholmens Østkaj,2450,55.6491747,12.553826,164.7058823529412
716,4,117,15200,Ørestad Boulevard,2300,55.6403311,12.5829753,129.9145299145299
717,4,111,16200,Vestre Teglgade,2450,55.6531338,12.5481159,145.94594594594594
718,4,128,17900,Otto Brandenburgs Vej,2450,55.6448797,12.5506094,139.84375
719,6,139,16900,Else Sørensens Vej,2610,55.68368220000001,12.4586118,121.58273381294964
720,5,133,18700,Else Alfelts Vej,2300,55.6180045,12.5665812,140.6015037593985
721,3,100,17850,Strandvejen,2100,55.7196919,12.5771189,178.5
722,3,65,14032,Njalsgade,2300,55.6630951,12.5935843,215.87692307692308
723,3,83,12500,Gadelandet,2700,55.7115422,12.4809887,150.6024096385542
724,3,83,13600,Etta Camerons Vej,2450,55.6459713,12.5460657,163.85542168674698
725,1,31,7400,Vanløse Allé,2720,55.6884627,12.4943031,238.70967741935485
726,3,183,29500,ØSTERBROGADE,2100,55.7077197,12.5770344,161.20218579234972
727,4,111,17200,Vestre Teglgade,2450,55.6531338,12.5481159,154.95495495495496
728,4,104,15000,Else Alfelts Vej,2300,55.6189696,12.5678022,144.23076923076923
729,3,69,13200,Fanny Jensens Plads,2450,55.650043,12.53649,191.30434782608697
730,2,65,11900,Richard Mortensens Vej,2300,55.61729010000002,12.5700323,183.07692307692307
731,6,195,35000,Store Kongensgade,1264,55.6825413,12.5859821,179.48717948717947
732,4,92,14100,Gadelandet,2700,55.711801,12.480088,153.2608695652174
733,3,89,14950,Poul,2500,55.6593381,12.5106728,167.97752808988764
734,4,96,13900,Hannemanns Allé,2300,55.626185,12.5762249,144.79166666666666
735,2,68,11400,Gunnekær,2610,55.68256179999998,12.4561229,167.64705882352942
736,5,139,18995,Auroravej,2610,55.6761934,12.4719775,136.6546762589928
737,3,90,13778,Gyngemose Parkvej,2860,55.7261207,12.478513,153.0888888888889
738,2,102,15300,JYLLINGEVEJ,2720,55.69189979999999,12.4835055,150.0
739,2,132,17000,Amagerbrogade,2300,55.6541904,12.6111424,128.78787878787878
740,1,69,12900,Montagehalsvej,2500,55.6592877,12.5138853,186.95652173913044
741,1,28,7957,Jorisvej,2300,55.645948,12.6361201,284.17857142857144
742,2,52,12200,Michael Strunges Vej,2300,55.6379214,12.5813706,234.6153846153846
743,1,52,9436,Frederikssundsvej,2400,55.7012191,12.5357119,181.46153846153845
744,3,69,13525,Robert Jacobsens Vej,2300,55.6202704,12.5734617,196.0144927536232
745,2,107,17500,Reventlowsgade,1651,55.671337,12.564363,163.55140186915887
746,1,28,7927,Jorisvej,2300,55.645948,12.6361201,283.10714285714283
747,3,98,18100,Marmorvej,2100,55.70376290000001,12.5955767,184.69387755102042
748,4,103,15400,Else Alfelts Vej,2300,55.6189696,12.5678022,149.51456310679612
749,1,126,17900,Kastelsvej,2100,55.6968808,12.5843399,142.06349206349208
750,3,92,13500,Irmavej,2610,55.6770177,12.4355482,146.7391304347826
751,5,169,18800,Amager Landevej,2770,55.636801,12.6186411,111.24260355029585
752,3,94,12995,Ørestads Boulevard,2300,55.636709,12.582897,138.24468085106383
753,3,153,30000,Frederiksgade,1265,55.6845082,12.5892592,196.07843137254903
754,5,127,17395,Ringholmvej,2700,55.6984402,12.5048056,136.96850393700788
755,3,153,19000,Bøllundvej,2770,55.6111462,12.5856906,124.18300653594771
756,4,111,16175,Glamsbjergvej,2770,55.6334885,12.5973234,145.72072072072072
757,3,108,19900,Mariendalsvej,2000,55.6909998,12.5318338,184.25925925925927
758,2,73,12630,Robert Jacobsens Vej,2300,55.6178099,12.572924,173.013698630137
759,3,67,12800,Robert Jacobsens Vej,2300,55.6183723,12.5731109,191.044776119403
760,3,86,15496,Njalsgade,2300,55.6630951,12.5935843,180.1860465116279
761,3,88,14300,Trekronergade,2500,55.652591,12.520118,162.5
762,3,113,14750,Ørestad Boulevard,2300,55.6403311,12.5829753,130.53097345132744
763,1,23,7150,C.F. Richs Vej,2000,55.68671,12.5039269,310.8695652173913
764,2,63,12470,Theodore Roosevelts Vej,2450,55.6490514,12.5352729,197.93650793650792
765,1,30,6250,Gyngemose Parkvej,2860,55.7272847,12.4799332,208.33333333333334
766,4,94,16450,Etta Camerons Vej,2450,55.64548809999999,12.5457852,175.0
767,1,52,9436,Frederikssundsvej,2400,55.7012191,12.5357119,181.46153846153845
768,4,103,15400,Else Alfelts Vej,2300,55.6189696,12.5678022,149.51456310679612
769,3,136,19995,Nørregårdsbakken,2610,55.6902767,12.4619402,147.02205882352942
770,4,113,15595,Ringholmvej,2700,55.697421,12.5051432,138.00884955752213
771,2,140,27000,Baunegårdsvej,2900,55.740025,12.5519331,192.85714285714286
772,4,120,15898,Kaffevej,2610,55.67641889999999,12.4364135,132.48333333333332
773,4,113,15800,Vestre Teglgade,2450,55.6541782,12.5490552,139.8230088495575
774,1,44,9200,Søndre Fasanvej,2500,55.6678805,12.5169621,209.0909090909091
775,4,119,15800,Ørestads Boulevard,2300,55.636709,12.582897,132.7731092436975
776,2,59,11300,Ørestads Boulevard,2300,55.636709,12.582897,191.52542372881356
777,2,83,12426,Gyngemose Parkvej,2860,55.7261207,12.478513,149.710843373494
778,4,102,14450,Emma Gads Vej,2300,55.63596070000001,12.579753,141.66666666666666
779,3,68,12100,Gadelandet,2700,55.7110946,12.4792902,177.94117647058823
780,2,104,19000,Amerika Plads,2100,55.6991961,12.5936566,182.69230769230768
781,2,57,11700,Emma Gads Vej,2300,55.6383072,12.5812413,205.26315789473685
782,2,43,10250,Poppelstykket,2450,55.6513066,12.5111867,238.37209302325581
783,3,140,40100,Drechselsgade,2300,55.6576031,12.5680071,286.42857142857144
784,2,29,10600,Finsensvej,2000,55.68118870000001,12.5186236,365.51724137931035
785,3,76,11800,Gunnekær,2610,55.6822026,12.4546107,155.26315789473685
786,3,80,14500,Øresundsvej,2300,55.6630307,12.6269288,181.25
787,4,132,14781,Hyld Ager,2770,55.6066426,12.5926814,111.97727272727273
788,2,101,18500,Islands Brygge,2300,55.6625574,12.5711003,183.16831683168317
789,2,63,10950,Else Alfelts Vej,2300,55.6174184,12.5663495,173.8095238095238
790,4,118,17200,Ved Stigbordene,2450,55.6441232,12.5494484,145.76271186440678
791,4,94,15900,Etta Camerons Vej,2450,55.64548809999999,12.5457852,169.14893617021278
792,4,131,16000,Ørestads Blvd.,2300,55.63511219999998,12.5829618,122.13740458015268
793,4,113,14200,Gadelandet,2700,55.7115422,12.4809887,125.66371681415929
794,4,97,14600,Aage Knudsens Strøg,2610,55.6889548,12.4492456,150.51546391752578
795,3,84,14500,Ørestads Boulevard,2300,55.6398911,12.5829104,172.61904761904762
796,3,121,20300,Nytorv,1450,55.6778296,12.5732055,167.76859504132233
797,2,130,23300,Anker Heegaards Gade,1572,55.6715493,12.5733981,179.23076923076923
798,2,64,11800,Emma Gads Vej,2300,55.6381171,12.5807981,184.375
799,3,83,12200,Gadelandet,2700,55.7115422,12.4809887,146.9879518072289
800,3,88,14300,Trekronergade,2500,55.652591,12.520118,162.5
801,2,74,12950,Etta Camerons Vej,2450,55.6461064,12.5473264,175.0
802,3,83,12500,Gadelandet,2700,55.7115422,12.4809887,150.6024096385542
803,2,43,11000,Tagensvej,2200,55.7052857,12.543816,255.8139534883721
804,2,64,10750,Else Alfelts Vej,2300,55.6174184,12.5663495,167.96875
805,3,86,15080,Njalsgade,2300,55.6630951,12.5935843,175.34883720930233
806,1,43,8385,Frederikssundsvej,2400,55.7012191,12.5357119,195.0
807,2,105,17094,Venøgade,2100,55.7125374,12.564038,162.8
808,4,117,15200,Ørestad Boulevard,2300,55.6403311,12.5829753,129.9145299145299
809,1,68,11024,Jorisvej,2300,55.64660629999998,12.6365771,162.11764705882354
810,4,93,13750,Korsdalsvej,2610,55.67595439999998,12.4345681,147.8494623655914
811,2,188,55000,Islands Brygge,2300,55.656803,12.5655565,292.5531914893617
812,1,105,13500,Nyrnberggade,2300,55.6666063,12.6173537,128.57142857142858
813,4,98,14300,Aage Knudsens Strøg,2610,55.6889548,12.4492456,145.91836734693877
814,2,74,11700,Aage Knudsens Strøg,2610,55.6889548,12.4492456,158.1081081081081
815,1,32,11000,Store Kongensgade,1264,55.686301,12.5895689,343.75
816,3,102,18200,Marmorvej,2100,55.7038439,12.5945528,178.4313725490196
817,3,104,16450,Lergravsvej,2300,55.663616,12.624077,158.17307692307693
818,3,102,14000,Børge Olsens Plads,2610,55.67117589999999,12.4728844,137.2549019607843
819,2,83,12000,Irmavej,2610,55.6768504,12.4362196,144.57831325301206
820,2,148,22000,Marskensgade,2100,55.7070483,12.5761134,148.64864864864865
821,1,30,8409,Jorisvej,2300,55.645948,12.6361201,280.3
822,2,63,12000,Emma Gads Vej,2300,55.6379972,12.5807523,190.47619047619048
823,3,119,14950,Robert Jacobsens Vej,2300,55.6205107,12.5735633,125.63025210084034
824,2,63,13734,Theodore Roosevelts Vej,2450,55.6490514,12.5352729,218.0
825,1,32,7334,Theklavej,2400,55.70550189999999,12.5271191,229.1875
826,1,53,10200,Poul Bundgaards Vej,2500,55.6591062,12.5100733,192.45283018867926
827,4,117,19176,Theodore Roosevelts Vej,2450,55.6490514,12.5352729,163.89743589743588
829,3,78,14000,Michael Strunges Vej,2300,55.6377494,12.5810511,179.48717948717947
830,3,104,14250,Børge Olsens Plads,2610,55.67117589999999,12.4728844,137.01923076923077
831,4,156,20900,Pladehals Allé,2450,55.6561101,12.5497959,133.97435897435898
832,3,98,17300,Skindergade,1159,55.67956820000001,12.5742476,176.53061224489795
833,1,49,10000,Siljangade,2300,55.66874499999999,12.613605,204.08163265306123
834,2,67,11150,Børge Olsens Plads,2610,55.67117589999999,12.4728844,166.4179104477612
835,2,64,11050,Kaffevej,2610,55.6764488,12.4364167,172.65625
836,2,63,12300,Emma Gads Vej,2300,55.6349421,12.579119,195.23809523809524
837,2,65,11900,Richard Mortensens Vej,2300,55.61729010000002,12.5700323,183.07692307692307
838,4,107,13900,Gadelandet,2700,55.7115422,12.4809887,129.90654205607476
839,2,63,11800,Richard Mortensens Vej,2300,55.6197972,12.5710961,187.3015873015873
840,1,48,10381,Svend Trøsts Vej,1912,55.67942499999998,12.5514368,216.27083333333334
841,4,261,28000,Store Kongensgade,1264,55.6861282,12.5892638,107.27969348659003
842,3,92,14000,Vestre Teglgade,2450,55.6550887,12.5478424,152.17391304347825
843,2,60,11700,Emma Gads Vej,2300,55.6349421,12.579119,195.0
844,3,71,11950,Gadelandet,2700,55.7110946,12.4792902,168.30985915492957
845,3,92,13500,Irmavej,2610,55.6770177,12.4355482,146.7391304347826
846,2,71,12700,Emma Gads Vej,2300,55.6383072,12.5812413,178.8732394366197
847,3,83,12200,Gadelandet,2700,55.7115422,12.4809887,146.9879518072289
848,3,89,12100,Gyngemose Parkvej,2860,55.7252461,12.4766022,135.95505617977528
849,2,66,11500,Aage Knudsens Strøg,2610,55.6889548,12.4492456,174.24242424242425
850,4,101,15700,Else Alfelts Vej,2300,55.616752,12.5682568,155.44554455445544
851,2,64,11050,Kaffevej,2610,55.6764488,12.4364167,172.65625
852,2,64,11800,Emma Gads Vej,2300,55.6381171,12.5807981,184.375
853,2,63,11560,Rødovrevej,2610,55.68407999999999,12.4651772,183.4920634920635
854,3,96,13158,Hannemanns Allé,2300,55.626185,12.5762249,137.0625
855,1,68,11024,Jorisvej,2300,55.64660629999998,12.6365771,162.11764705882354
856,4,103,14350,Børge Olsens Plads,2610,55.67117589999999,12.4728844,139.32038834951456
857,5,146,15901,Hyld Ager,2770,55.6065406,12.5934049,108.91095890410959
858,1,42,9854,Svend Trøsts Vej,1912,55.67942499999998,12.5514368,234.61904761904762
859,2,66,11600,Aage Knudsens Strøg,2610,55.6889548,12.4492456,175.75757575757575
860,3,80,13050,Else Alfelts Vej,2300,55.6174184,12.5663495,163.125
861,4,108,14511,Kaffevej,2610,55.67641279999999,12.4370807,134.36111111111111
862,4,132,14781,Hyld Ager,2770,55.6066426,12.5926814,111.97727272727273
864,3,70,13250,Else Alfelts Vej,2300,55.619128,12.5686257,189.28571428571428
865,4,101,13850,Else Alfelts Vej,2300,55.6181206,12.5676016,137.12871287128712
866,2,79,11495,Møllevangen,2610,55.70502029999999,12.4332312,145.50632911392404
867,2,91,17500,Anker Heegaards Gade,1571,55.67184349999999,12.5727964,192.30769230769232
868,2,74,11000,Møllevangen,2610,55.70502029999999,12.4332312,148.64864864864865
869,2,74,10995,Møllevangen,2610,55.7050206,12.4332363,148.5810810810811
870,5,134,18000,Else Alfelts Vej,2300,55.619128,12.5686257,134.32835820895522
871,4,94,14050,Børge Olsens Plads,2610,55.67117589999999,12.4728844,149.46808510638297
872,1,32,11000,Store Kongensgade,1264,55.686301,12.5895689,343.75
873,2,66,12300,Emma Gads Vej,2300,55.6382372,12.5813561,186.36363636363637
874,3,70,13250,Else Alfelts Vej,2300,55.619128,12.5686257,189.28571428571428
875,2,105,17094,Venøgade,2100,55.7125374,12.564038,162.8
876,4,113,14200,Gadelandet,2700,55.7115422,12.4809887,125.66371681415929
877,2,48,10200,Gadelandet,2700,55.7104602,12.4844416,212.5
878,4,104,16300,Else Alfelts Vej,2300,55.6189696,12.5678022,156.73076923076923
879,3,97,15700,Else Afelts Vej,2300,55.6194089,12.5679844,161.8556701030928
880,3,97,14900,Else Afelts Vej,2300,55.6194089,12.5679844,153.60824742268042
881,4,81,13900,Else Alfelts Vej,2300,55.6189696,12.5678022,171.60493827160494
882,2,59,11700,Emma Gads Vej,2300,55.638214,12.58092,198.3050847457627
883,3,85,13100,Kaffevej,2610,55.6764488,12.4364167,154.11764705882354
884,2,71,12700,Asger Jorns Allé,2300,55.61974,12.5718695,178.8732394366197
885,4,134,20100,Artillerivej,2300,55.6534925,12.567663,150.0
886,2,63,12000,Emma Gads Vej,2300,55.6379972,12.5807523,190.47619047619048
887,2,55,11200,Ørestad Boulevard,2300,55.6403311,12.5829753,203.63636363636363
888,3,93,15450,Axel Strøbyes Vej,2500,55.6597483,12.5117815,166.1290322580645
889,1,46,10000,Else Alfelts Vej,2300,55.6165207,12.5662034,217.3913043478261
890,2,71,12500,Michael Strunges Vej,2300,55.6377494,12.5810511,176.05633802816902
891,3,73,12400,Gyngemose Parkvej,2860,55.7275956,12.479145,169.86301369863014
892,4,93,13700,Gadelandet,2700,55.7115422,12.4809887,147.31182795698925
893,2,61,12100,Michael Strunges Vej,2300,55.6377548,12.580868,198.36065573770492
894,4,105,14995,Kaffevej,2610,55.67617689999999,12.4360383,142.8095238095238
895,4,103,14250,Børge Olsens Plads,2610,55.67117589999999,12.4728844,138.3495145631068
896,3,84,13800,Else Alfelts Vej,2300,55.6166712,12.5659635,164.28571428571428
897,5,119,16300,Richard Mortensens Vej,2300,55.6185188,12.5709446,136.9747899159664
898,2,107,20800,Puggaardsgade,1573,55.67209150000001,12.5730628,194.39252336448598
899,4,95,13850,Irmavej,2610,55.67698309999999,12.4362041,145.78947368421052
900,2,62,11300,Kaffevej,2610,55.6764488,12.4364167,182.25806451612902
901,2,63,12300,Emma Gads Vej,2300,55.6349421,12.579119,195.23809523809524
902,3,78,14000,Michael Strunges Vej,2300,55.6377494,12.5810511,179.48717948717947
903,4,127,22444,Theodore Roosevelts Vej,2450,55.6588408,12.5593666,176.7244094488189
904,3,106,13350,Gladsaxevej,2860,55.73960899999999,12.48682,125.94339622641509
905,2,63,10750,Else Alfelts Vej,2300,55.6174184,12.5663495,170.63492063492063
906,4,107,13900,Gadelandet,2700,55.7115422,12.4809887,129.90654205607476
907,3,95,17500,Bardenflethsgade,2300,55.6664475,12.5931035,184.21052631578948
908,4,119,15800,Ørestads Boulevard,2300,55.636709,12.582897,132.7731092436975
909,2,62,11200,Kaffevej,2610,55.6764488,12.4364167,180.6451612903226
910,4,88,14150,Gadelandet,2700,55.711801,12.480088,160.79545454545453
911,2,132,17000,Amagerbrogade,2300,55.6541904,12.6111424,128.78787878787878
912,4,116,16150,Ørestad Boulevard,2300,55.6403311,12.5829753,139.22413793103448
913,3,135,20900,Klosterstræde,1161,55.679083,12.575332,154.8148148148148
914,2,83,12000,Irmavej,2610,55.6768504,12.4362196,144.57831325301206
915,2,64,10450,Else Alfelts Vej,2300,55.6174184,12.5663495,163.28125
916,1,30,8409,Jorisvej,2300,55.645948,12.6361201,280.3
917,4,87,11900,Gyngemose Parkvej,2860,55.7266624,12.4804811,136.7816091954023
918,3,70,13600,Emma Gads Vej,2300,55.6379972,12.5807523,194.28571428571428
919,1,43,8385,Frederikssundsvej,2400,55.7012191,12.5357119,195.0
920,4,92,13850,Gadelandet,2700,55.711801,12.480088,150.54347826086956
921,4,92,13850,Gadelandet,2700,55.711801,12.480088,150.54347826086956
922,3,93,16220,Ben Websters Vej,2450,55.6464648,12.5519331,174.40860215053763
923,1,70,16000,Rosenvængets Hovedvej,2100,55.7013125,12.5854108,228.57142857142858
924,2,57,11800,Emma Gads Vej,2300,55.6383072,12.5812413,207.01754385964912
925,3,104,14350,Børge Olsens Plads,2610,55.67117589999999,12.4728844,137.98076923076923
926,4,114,15975,Glamsbjergvej,2770,55.6339304,12.5970708,140.1315789473684
927,2,63,11400,Emma Gads Vej,2300,55.6349421,12.579119,180.95238095238096
928,4,128,18350,Parmagade,2300,55.652689,12.6126369,143.359375
929,3,84,12600,Blomsterstræde,2610,55.6889548,12.4492456,150.0
930,2,67,11150,Børge Olsens Plads,2610,55.67117589999999,12.4728844,166.4179104477612
931,5,120,16500,Else Alfelts Vej,2300,55.6168704,12.5660394,137.5
932,1,23,7050,C.F. Richs Vej,2000,55.68671,12.5039269,306.5217391304348
933,3,80,13250,Else Alfelts Vej,2300,55.6174184,12.5663495,165.625
934,2,64,10750,Else Alfelts Vej,2300,55.6174184,12.5663495,167.96875
935,2,102,15300,JYLLINGEVEJ,2720,55.69189979999999,12.4835055,150.0
936,5,111,16700,Else Alfelts Vej,2300,55.6189696,12.5678022,150.45045045045046
937,4,94,16450,Etta Camerons Vej,2450,55.64548809999999,12.5457852,175.0
938,3,65,14138,Njalsgade,2300,55.6630951,12.5935843,217.5076923076923
939,4,107,14100,Gunnekær,2610,55.6822256,12.4559635,131.77570093457945
940,4,94,13950,Børge Olsens Plads,2610,55.67117589999999,12.4728844,148.40425531914894
941,3,76,13900,Emma Gads Vej,2300,55.6383253,12.5809902,182.89473684210526
942,2,91,13200,Robert Jacobsens Vej,2300,55.6200432,12.573415,145.05494505494505
943,1,46,10000,Else Alfelts Vej,2300,55.6169586,12.5663611,217.3913043478261
944,1,23,7050,C.F. Richs Vej,2000,55.68671,12.5039269,306.5217391304348
945,2,52,11900,Michael Strunges Vej,2300,55.6378413,12.5811397,228.84615384615384
946,4,103,15100,Ørestads Boulevard,2300,55.636709,12.582897,146.60194174757282
947,3,98,14100,Vestre Teglgade,2450,55.6541782,12.5490552,143.87755102040816
948,4,107,14300,Else Sørensens Vej,2610,55.68368220000001,12.4586118,133.6448598130841
949,4,91,15085,Richard Mortensens Vej,2300,55.6218405,12.5721728,165.76923076923077
950,3,102,14000,Børge Olsens Plads,2610,55.67117589999999,12.4728844,137.2549019607843
951,4,118,20500,Otto Brandenburgs Vej,2450,55.6444396,12.551754,173.72881355932202
952,3,111,18550,Ved Stigbordene,2450,55.6437643,12.5507496,167.11711711711712
953,2,67,12730,Theodore Roosevelts Vej,2450,55.6490514,12.5352729,190.0
954,3,88,14400,Flydedokken,2450,55.6552264,12.5517857,163.63636363636363
955,3,100,13675,Ørestads Boulevard,2300,55.636709,12.582897,136.75
956,2,188,28000,Vester Voldgade,1552,55.6750751,12.571788,148.93617021276594
957,4,116,19779,Theodore Roosevelts Vej,2450,55.6490514,12.5352729,170.50862068965517
958,3,197,29500,Overgaden Oven Vandet,1415,55.6733199,12.5925769,149.746192893401
959,4,213,27512,Kastelsvej,2100,55.6964886,12.585991,129.1643192488263
960,2,43,9800,Rødovre Port,2610,55.66509569999998,12.4561535,227.90697674418604
961,2,95,20000,Rosenørns Allé,1970,55.6827222,12.5494317,210.52631578947367
962,3,76,12250,Gadelandet,2700,55.7110946,12.4792902,161.18421052631578
963,4,104,16000,Andrea Brochmanns Gade,2450,55.6483234,12.5383547,153.84615384615384
964,4,166,25995,C V E Knuths Vej,2900,55.73273889999999,12.5617231,156.59638554216866
965,4,96,13650,Ørestads Boulevard,2300,55.6383592,12.5836597,142.1875
966,2,62,11900,Emma Gads Vej,2300,55.6383072,12.5812413,191.93548387096774
967,1,52,10200,Poul Bundgaards Vej,2500,55.6591062,12.5100733,196.15384615384616
968,3,85,13300,Kaffevej,2610,55.6764488,12.4364167,156.47058823529412
969,5,123,16705,Robert Jacobsens Vej,2300,55.6217108,12.5729561,135.8130081300813
970,1,42,8900,Tagensvej,2200,55.7052857,12.543816,211.9047619047619
971,2,65,11000,Kaffevej,2610,55.6764488,12.4364167,169.23076923076923
972,1,29,7700,Poul Bundgaards Vej,2500,55.6591062,12.5100733,265.51724137931035
973,3,84,14500,Ørestads Boulevard,2300,55.6361248,12.5812126,172.61904761904762
974,1,29,7300,Gl. Køge Landevej,2500,55.6557304,12.5115847,251.72413793103448
975,4,111,14500,Gadelandet,2700,55.7106205,12.4839747,130.63063063063063
976,4,102,14500,Gyngemose Parkvej,2860,55.72722049999999,12.4776411,142.15686274509804
977,3,98,14400,Else Alfelts Vej,2300,55.6177205,12.5682712,146.9387755102041
978,1,31,7400,Gl. Køge Landevej,2500,55.6557304,12.5115847,238.70967741935485
979,4,90,14200,Gertrude Steins Vej,2300,55.6396737,12.582732,157.77777777777777
980,3,98,14200,Else Alfelts Vej,2300,55.6177205,12.5682712,144.89795918367346
981,4,113,14200,Gadelandet,2700,55.7115422,12.4809887,125.66371681415929
982,4,93,14150,Gadelandet,2700,55.711801,12.480088,152.1505376344086
983,4,97,14150,Gadelandet,2700,55.711801,12.480088,145.8762886597938
984,4,103,14000,Gadelandet,2700,55.7106205,12.4839747,135.92233009708738
985,3,81,14200,Halldor Laxness Vej,2300,55.63680309999999,12.5806859,175.30864197530863
986,4,94,14000,Richard Mortensens Vej,2300,55.6190179,12.5707851,148.93617021276594
987,4,102,14000,Gadelandet,2700,55.7106205,12.4839747,137.2549019607843
988,4,102,14000,Gadelandet,2700,55.7106205,12.4839747,137.2549019607843
989,3,108,14300,Martha Christensens Vej,2300,55.63817479999999,12.5815966,132.40740740740742
990,3,83,13700,Halldor Laxness Vej,2300,55.636764,12.5810612,165.06024096385542
991,4,95,13750,Gadelandet,2700,55.711801,12.480088,144.73684210526315
992,3,72,13600,Nadine Gordimers Vej,2300,55.6361143,12.578472,188.88888888888889
993,3,76,14000,Emma Gads Vej,2300,55.6383253,12.5809902,184.21052631578948
994,3,93,13950,Ørestads Boulevard,2300,55.6395081,12.5829602,150.0
995,4,102,13900,Gadelandet,2700,55.7115422,12.4809887,136.27450980392157
996,4,96,13900,Gadelandet,2700,55.711801,12.480088,144.79166666666666
997,3,74,13500,Emma Gads Vej,2300,55.6361344,12.5795203,182.43243243243242
998,3,70,13450,Else Alfelts Vej,2300,55.6191368,12.5686273,192.14285714285714
999,3,80,13400,Richard Mortensens Vej,2300,55.6178019,12.5691919,167.5
1000,2,64,13200,Emma Gads Vej,2300,55.6378427,12.580475,206.25
1001,3,70,13250,Else Alfelts Vej,2300,55.6191368,12.5686273,189.28571428571428
1002,4,107,13900,Gadelandet,2700,55.7115422,12.4809887,129.90654205607476
1003,4,92,13950,Gadelandet,2700,55.711801,12.480088,151.6304347826087
1004,2,60,12200,Emma Gads Vej,2300,55.6349421,12.579119,203.33333333333334
1005,4,94,14300,Rødovre Port,2610,55.6655224,12.4560313,152.12765957446808
1006,1,26,8650,Finsensvej,2000,55.68118870000001,12.5186236,332.6923076923077
1007,1,37,8500,Poppelstykket,2450,55.6513066,12.5111867,229.72972972972974
1008,1,37,8500,Poppelstykket,2450,55.6513066,12.5111867,229.72972972972974
1009,1,35,7500,Poppelstykket,2450,55.6515557,12.5119233,214.28571428571428
1010,1,31,7500,Gl. Køge Landevej,2500,55.6557304,12.5115847,241.93548387096774
1011,1,31,7300,Gl. Køge Landevej,2500,55.6557304,12.5115847,235.48387096774192
1012,1,40,8350,Poppelstykket,2450,55.6515557,12.5119233,208.75
1013,1,45,8300,Kobbelvænget,2700,55.7112967,12.4806054,184.44444444444446
1014,1,45,8300,Kobbelvænget,2700,55.7112967,12.4806054,184.44444444444446
1015,4,92,14000,Gadelandet,2700,55.711801,12.480088,152.17391304347825
1016,3,67,13700,Halldór Laxness Vej,2300,55.6361781,12.5809257,204.47761194029852
1017,4,106,14300,Edvard Thomsens Vej,2300,55.6318523,12.5749016,134.9056603773585
1018,3,67,12900,Gertrude Steins Vej,2300,55.6396737,12.582732,192.53731343283582
1019,2,79,13000,Martha Christensens Vej,2300,55.63817479999999,12.5815966,164.55696202531647
1020,2,79,12950,Martha Christensens Vej,2300,55.63817479999999,12.5815966,163.9240506329114
1021,3,71,12250,Gadelandet,2700,55.7104602,12.4844416,172.53521126760563
1022,3,74,12000,Gadelandet,2700,55.7104602,12.4844416,162.16216216216216
1023,3,77,12000,Gadelandet,2700,55.7104602,12.4844416,155.84415584415584
1024,2,60,11900,Michael Strunges Vej,2300,55.6377548,12.580868,198.33333333333334
1025,3,72,12000,Gadelandet,2700,55.7104602,12.4844416,166.66666666666666
1026,1,25,8000,Finsensvej,2000,55.68118870000001,12.5186236,320.0
1027,1,35,7950,Poppelstykket,2450,55.6515557,12.5119233,227.14285714285714
1028,1,35,7950,Poppelstykket,2450,55.6515557,12.5119233,227.14285714285714
1029,1,35,7950,Poppelstykket,2450,55.6513066,12.5111867,227.14285714285714
1030,1,26,7900,Finsensvej,2000,55.68118870000001,12.5186236,303.84615384615387
1031,1,27,7900,Finsensvej,2000,55.68118870000001,12.5186236,292.5925925925926
1032,1,25,7850,Finsensvej,2000,55.68118870000001,12.5186236,314.0
1033,4,151,29500,Vendersgade,1363,55.6842429,12.5672978,195.36423841059602
1034,1,26,7900,Finsensvej,2000,55.68118870000001,12.5186236,303.84615384615387
1035,1,32,7700,Gl. Køge Landevej,2500,55.6557304,12.5115847,240.625
1036,1,25,7850,Finsensvej,2000,55.68118870000001,12.5186236,314.0
1037,1,28,7850,Finsensvej,2000,55.68118870000001,12.5186236,280.35714285714283
1038,1,25,7850,Finsensvej,2000,55.68118870000001,12.5186236,314.0
1039,1,35,7700,Gl. Køge Landevej,2500,55.6557304,12.5115847,220.0
1040,1,30,7500,Vanløse Allé,2720,55.6884627,12.4943031,250.0
1041,1,34,7600,Gl. Køge Landevej,2500,55.6557304,12.5115847,223.52941176470588
1042,1,30,7300,Vanløse Allé,2720,55.6884627,12.4943031,243.33333333333334
1043,1,29,7500,Vanløse Allé,2720,55.6884627,12.4943031,258.62068965517244
1044,3,71,13600,Robert Jacobsens Vej,2300,55.6202704,12.5734617,191.54929577464787
1045,1,36,8500,Poppelstykket,2450,55.6515557,12.5119233,236.11111111111111
1046,3,93,16220,Ben Websters Vej,2450,55.6465652,12.5520061,174.40860215053763
1047,3,98,15650,Ben Websters Vej,2450,55.6465652,12.5520061,159.69387755102042
1048,4,135,16900,Irmavej,2610,55.6770177,12.4355482,125.18518518518519
1049,2,63,12925,Robert Jacobsens Vej,2300,55.6202704,12.5734617,205.15873015873015
1050,3,81,13500,Irmavej,2610,55.6770177,12.4355482,166.66666666666666
1051,1,31,7500,Gl. Køge Landevej,2500,55.6557304,12.5115847,241.93548387096774
1052,3,84,13800,Else Alfelts Vej,2300,55.6166712,12.5659635,164.28571428571428
1053,4,104,18100,Teglholmens Østkaj,2450,55.64917459999998,12.5549727,174.03846153846155
1054,3,87,12950,Børge Olsens Plads,2610,55.67117589999999,12.4728844,148.8505747126437
1055,4,103,14900,Else Alfelts Vej,2300,55.6189696,12.5678022,144.6601941747573
1056,4,112,16689,Montagehalsvej,2500,55.6596809,12.5128774,149.00892857142858
1057,4,98,14300,Aage Knudsens Strøg,2610,55.6889548,12.4492456,145.91836734693877
1058,2,91,13200,Robert Jacobsens Vej,2300,55.6200432,12.573415,145.05494505494505
1059,3,80,12250,Kaffevej,2610,55.6764488,12.4364167,153.125
1060,3,156,27300,Overgaden Neden Vandet,1400,55.6727407,12.590873,175.0
1061,1,42,9854,Svend Trøsts Vej,1912,55.67942499999998,12.5514368,234.61904761904762
1062,3,100,13675,Ørestads Boulevard,2300,55.636709,12.582897,136.75
1063,4,148,31352,Sorgenfrigade,2200,55.69572640000002,12.5451098,211.83783783783784
1064,4,94,14050,Børge Olsens Plads,2610,55.67117589999999,12.4728844,149.46808510638297
1065,4,122,17750,Nordre Teglkaj,2450,55.6542043,12.5494642,145.49180327868854
1066,2,78,12950,Michael Strunges Vej,2300,55.6377494,12.5810511,166.02564102564102
1067,4,94,13850,Børge Olsens Plads,2610,55.67117589999999,12.4728844,147.3404255319149
1068,5,123,16705,Robert Jacobsens Vej,2300,55.6217108,12.5729561,135.8130081300813
1069,4,128,18750,Alliancevej,2450,55.6484742,12.5528649,146.484375
1070,3,85,13300,Kaffevej,2610,55.6764488,12.4364167,156.47058823529412
1071,3,104,14250,Børge Olsens Plads,2610,55.67117589999999,12.4728844,137.01923076923077
1072,4,103,15300,Else Alfelts Vej,2300,55.6194089,12.5679844,148.54368932038835
1073,2,55,10500,Møllevangen,2610,55.7051143,12.4353148,190.9090909090909
1074,2,64,11250,Else Alfelts Vej,2300,55.6174184,12.5663495,175.78125
1075,2,63,11050,Børge Olsens Plads,2610,55.67117589999999,12.4728844,175.3968253968254
1076,4,114,15975,Glamsbjergvej,2770,55.6339304,12.5970708,140.1315789473684
1077,4,100,13763,Hannemanns Allé,2300,55.626185,12.5762249,137.63
1078,3,85,13100,Kaffevej,2610,55.6764488,12.4364167,154.11764705882354
1079,3,89,13350,Kaffevej,2610,55.67641889999999,12.4364135,150.0
1080,5,120,16900,Else Alfelts Vej,2300,55.6168704,12.5660394,140.83333333333334
1081,4,112,15800,Glamsbjergvej,2770,55.6339304,12.5970708,141.07142857142858
1082,3,88,14300,Kulvej,2450,55.6548033,12.5490742,162.5
1083,2,79,11495,Møllevangen,2610,55.7051143,12.4353148,145.50632911392404
1084,2,73,13028,Robert Jacobsens Vej,2300,55.6178099,12.572924,178.46575342465752
1085,4,102,13900,Gadelandet,2700,55.7115422,12.4809887,136.27450980392157
1086,4,93,13750,Gadelandet,2700,55.7115422,12.4809887,147.8494623655914
1087,2,53,12200,Ørestad Boulevard,2300,55.6403311,12.5829753,230.18867924528303
1088,4,115,19000,Skelmosevej,2500,55.669016,12.512669,165.2173913043478
1089,3,102,15692,Ben Websters Vej,2450,55.6462172,12.5510459,153.84313725490196
1090,2,74,11000,Møllevangen,2610,55.7051143,12.4353148,148.64864864864865
1091,2,95,17000,Bardenflethsgade,2300,55.6661515,12.5928119,178.94736842105263
1092,4,94,16600,Linus Paulings Vej,2450,55.6543061,12.5537018,176.59574468085106
1093,3,76,13900,Emma Gads Vej,2300,55.6383253,12.5809902,182.89473684210526
1094,1,43,10300,Else Alfelts Vej,2300,55.6168704,12.5660394,239.53488372093022
1095,3,93,15438,Ben Websters Vej,2450,55.6464648,12.5519331,166.0
1096,2,77,55000,Hjørringgade,2100,55.7059744,12.5882955,714.2857142857143
1097,1,74,11750,Ørestads Boulevard,2300,55.64323049999999,12.5845522,158.78378378378378
1098,4,104,15000,Else Alfelts Vej,2300,55.6189696,12.5678022,144.23076923076923
1099,3,116,19100,Islands Brygge,2300,55.6618119,12.5696679,164.6551724137931
1100,4,81,13900,Else Alfelts Vej,2300,55.6189696,12.5678022,171.60493827160494
1101,5,123,16705,Robert Jacobsens Vej,2300,55.6217108,12.5729561,135.8130081300813
1102,3,142,37500,Drechselsgade,2300,55.6573085,12.5681515,264.0845070422535
1103,2,80,11495,Møllevangen,2610,55.7051143,12.4353148,143.6875
1104,3,107,20800,Puggaardsgade,1571,55.67209150000001,12.5730628,194.39252336448598
1105,1,35,8250,Katrinedalsvej,2720,55.6884355,12.4915581,235.71428571428572
1106,4,148,23500,Rundholtsvej,2300,55.653529,12.5657767,158.78378378378378
1107,3,96,15650,Ved Stigbordene,2450,55.6443179,12.5490366,163.02083333333334
1108,3,111,19700,Anker Heegaards Gade,1571,55.67184349999999,12.5727964,177.47747747747746
1109,2,66,12300,Michael Strunges Vej,2300,55.6376636,12.5807748,186.36363636363637
1110,2,48,11400,Tagensvej,2200,55.7052857,12.543816,237.5
1111,4,98,14400,Aage Knudsens Strøg,2610,55.6889548,12.4492456,146.9387755102041
1112,3,93,15538,Theodore Roosevelts Vej,2450,55.6490514,12.5352729,167.0752688172043
1113,3,79,14000,Else Alfelts Vej,2300,55.6166712,12.5659635,177.21518987341773
1114,4,81,13900,Else Alfelts Vej,2300,55.6189696,12.5678022,171.60493827160494
1115,4,94,14050,Børge Olsens Plads,2610,55.67117589999999,12.4728844,149.46808510638297
1116,4,81,13900,Else Alfelts Vej,2300,55.6189696,12.5678022,171.60493827160494
1117,4,106,16400,Teglholmens Østkaj,2450,55.6488417,12.5546223,154.71698113207546
1118,2,62,11200,Kaffevej,2610,55.6764488,12.4364167,180.6451612903226
1119,2,128,16300,Etta Camerons Vej,2450,55.64548809999999,12.5457852,127.34375
1120,2,29,10700,Finsensvej,2000,55.68118870000001,12.5186236,368.9655172413793
1121,4,103,16900,Teglholmens Østkaj,2450,55.64917459999998,12.5549727,164.07766990291262
1122,3,72,12000,Gadelandet,2700,55.7110946,12.4792902,166.66666666666666
1123,4,100,17145,Teglholmsgade,2450,55.6524298,12.5454418,171.45
1124,4,96,17300,Otto Brandenburgs Vej,2450,55.6439762,12.5511351,180.20833333333334
1125,3,88,14300,Kulvej,2450,55.6548033,12.5490742,162.5
1126,3,69,13200,Michael Strunges Vej,2300,55.6378413,12.5811397,191.30434782608697
1127,3,123,22100,Scherfigsvej,2100,55.7216725,12.5802168,179.6747967479675
1128,2,78,12950,Michael Strunges Vej,2300,55.6377494,12.5810511,166.02564102564102
1129,3,70,13450,Else Alfelts Vej,2300,55.619128,12.5686257,192.14285714285714
1130,3,83,12700,Irmavej,2610,55.67698309999999,12.4362041,153.0120481927711
1131,4,104,16500,Teglholmens Østkaj,2450,55.6492942,12.5533005,158.65384615384616
1132,3,77,13300,Michael Strunges Vej,2300,55.6380014,12.581605,172.72727272727272
1133,3,83,13600,Etta Camerons Vej,2450,55.6459713,12.5460657,163.85542168674698
1134,1,32,7334,Theklavej,2400,55.70550189999999,12.5271191,229.1875
1135,1,60,10450,Else Alfelts Vej,2300,55.6174184,12.5663495,174.16666666666666
1136,2,114,15470,Ørestads Boulevard,2300,55.6345623,12.5820972,135.7017543859649
1137,4,94,13850,Børge Olsens Plads,2610,55.67117589999999,12.4728844,147.3404255319149
1138,2,64,11650,Else Alfelts Vej,2300,55.6174184,12.5663495,182.03125
1139,4,99,14400,Aage Knudsens Strøg,2610,55.6889548,12.4492456,145.45454545454547
1140,2,48,11400,Tagensvej,2200,55.7052857,12.543816,237.5
1141,2,63,11050,Børge Olsens Plads,2610,55.67117589999999,12.4728844,175.3968253968254
1142,1,60,14500,Siljangade,2300,55.66874499999999,12.613605,241.66666666666666
1143,4,102,14000,Gadelandet,2700,55.7112397,12.4802508,137.2549019607843
1144,3,80,12950,Else Alfelts Vej,2300,55.6174184,12.5663495,161.875
1145,4,93,13850,Gadelandet,2700,55.7115422,12.4809887,148.9247311827957
1146,3,65,14532,Njalsgade,2300,55.6630951,12.5935843,223.56923076923076
1147,4,103,14950,Else Afelts Vej,2300,55.6194089,12.5679844,145.14563106796118
1148,2,63,10950,Børge Olsens Plads,2610,55.67117589999999,12.4728844,173.8095238095238
1149,4,103,15300,Else Alfelts Vej,2300,55.6194089,12.5679844,148.54368932038835
1150,4,140,16300,Dea Trier Mørchs Vej,2300,55.6364724,12.5812246,116.42857142857143
1151,1,77,45000,Hjørringgade,2100,55.7059744,12.5882955,584.4155844155844
1152,4,94,15400,Rødovre Port,2610,55.665523,12.456098,163.82978723404256
1153,5,122,25000,Strandvejen,2900,55.74175810000001,12.5788831,204.91803278688525
1154,3,76,12250,Gadelandet,2700,55.7110946,12.4792902,161.18421052631578
1155,3,69,13200,Michael Strunges Vej,2300,55.6378413,12.5811397,191.30434782608697
1156,3,83,12550,Irmavej,2610,55.6768296,12.4364329,151.20481927710844
1158,3,96,14977,Robert Jacobsens Vej,2300,55.6215844,12.5734099,156.01041666666666
1159,2,62,11000,Kaffevej,2610,55.6764488,12.4364167,177.41935483870967
1160,1,81,15900,Islands Brygge,2300,55.657744,12.5674161,196.2962962962963
1161,4,93,13750,Gadelandet,2700,55.7115422,12.4809887,147.8494623655914
1162,4,93,13700,Gadelandet,2700,55.7115422,12.4809887,147.31182795698925
1163,3,92,15640,Ben Websters Vej,2450,55.6464648,12.5519331,170.0
1164,2,43,9600,Rødovre Port,2610,55.66509569999998,12.4561535,223.25581395348837
1165,1,60,10250,Else Alfelts Vej,2300,55.6174184,12.5663495,170.83333333333334
1166,3,108,13400,Gladsaxevej,2860,55.7392107,12.4882786,124.07407407407408
1167,3,102,13600,Richard Mortensens Vej,2300,55.6207888,12.5711196,133.33333333333334
1168,2,149,26750,Islands Brygge,2300,55.657744,12.5674161,179.53020134228188
1169,4,100,19552,Faste Batteri Vej,2300,55.6644927,12.5914391,195.52
1170,2,58,11850,Ørestad Boulevard,2300,55.6403311,12.5829753,204.31034482758622
1171,4,93,15600,Andrea Brochmanns Gade,2450,55.6483234,12.5383547,167.74193548387098
1172,2,66,12200,Michael Strunges Vej,2300,55.6376636,12.5807748,184.84848484848484
1173,3,83,12700,Irmavej,2610,55.67698309999999,12.4362041,153.0120481927711
1174,2,104,16750,Venøgade,2100,55.7125374,12.564038,161.05769230769232
1175,5,121,17990,Gertrude Steins Vej,2300,55.6400006,12.5784812,148.67768595041323
1176,2,65,11250,Else Alfelts Vej,2300,55.6174184,12.5663495,173.07692307692307
1177,4,94,13950,Børge Olsens Plads,2610,55.67117589999999,12.4728844,148.40425531914894
1178,3,104,14350,Børge Olsens Plads,2610,55.67117589999999,12.4728844,137.98076923076923
1179,2,65,11050,Else Alfelts Vej,2300,55.6174184,12.5663495,170.0
1180,4,114,15200,Børge Olsens Plads,2610,55.67117589999999,12.4728844,133.33333333333334
1181,3,111,18550,Ved Stigbordene,2450,55.6437643,12.5507496,167.11711711711712
1182,2,64,11450,Else Alfelts Vej,2300,55.6174184,12.5663495,178.90625
1183,3,72,12100,Gadelandet,2700,55.7110946,12.4792902,168.05555555555554
1184,3,133,18795,Nytorv,1450,55.6778296,12.5732055,141.31578947368422
1185,1,46,10200,Else Alfelts Vej,2300,55.6169586,12.5663611,221.7391304347826
1186,4,127,20400,Artillerivej,2300,55.6534925,12.567663,160.62992125984252
1187,4,112,18600,Alliancevej,2450,55.64826619999998,12.553423,166.07142857142858
1188,4,93,13750,Gadelandet,2700,55.7115422,12.4809887,147.8494623655914
1189,4,93,13700,Gadelandet,2700,55.7115422,12.4809887,147.31182795698925
1190,3,96,14977,Robert Jacobsens Vej,2300,55.6215844,12.5734099,156.01041666666666
1191,4,113,20961,Theodore Roosevelts Vej,2450,55.6590184,12.5605584,185.49557522123894
1192,3,79,14000,Else Alfelts Vej,2300,55.6166712,12.5659635,177.21518987341773
1193,3,96,13227,Hannemanns Allé,2300,55.626185,12.5762249,137.78125
1194,4,116,19673,Theodore Roosevelts Vej,2450,55.6490514,12.5352729,169.5948275862069
1195,2,29,10900,Finsensvej,2000,55.68118870000001,12.5186236,375.86206896551727
1196,4,151,25495,Drechselsgade,2300,55.65812829999999,12.567894,168.841059602649
1197,3,77,14600,Michael Strunges Vej,2300,55.6376636,12.5807748,189.6103896103896
1198,2,64,11700,Emma Gads Vej,2300,55.6381171,12.5807981,182.8125
1199,3,80,12150,Gadelandet,2700,55.7110946,12.4792902,151.875
1200,5,153,16950,Islev Have,2610,55.70582719999999,12.4338754,110.7843137254902
1201,2,88,13000,Tagensvej,2200,55.7053782,12.5434519,147.72727272727272
1202,3,83,13900,Etta Camerons Vej,2450,55.6459713,12.5460657,167.46987951807228
1203,1,46,10200,Else Alfelts Vej,2300,55.6165207,12.5662034,221.7391304347826
1204,2,62,11600,Richard Mortensens Vej,2300,55.619454,12.57111,187.09677419354838
1205,3,169,25350,Wildersgade,1400,55.6731094,12.5899468,150.0
1206,2,123,28000,Frederiksberg Alle,1820,55.673688,12.54063,227.64227642276424
1207,4,102,17200,Teglholmens Østkaj,2450,55.6491747,12.553826,168.62745098039215
1208,4,128,15400,Dea Trier Mørchs Vej,2300,55.6364724,12.5812246,120.3125
1209,4,102,16800,Teglholmens Østkaj,2450,55.6491747,12.553826,164.7058823529412
1210,2,58,11850,Ørestad Boulevard,2300,55.6403311,12.5829753,204.31034482758622
1211,4,101,16000,Else Alfelts Vej,2300,55.616752,12.5682568,158.41584158415841
1212,2,63,10850,Børge Olsens Plads,2610,55.67117589999999,12.4728844,172.22222222222223
1213,3,97,14246,Gyngemose Parkvej,2860,55.7259258,12.4790917,146.8659793814433
1214,4,106,14462,Gyngemose Parkvej,2860,55.72563599999999,12.478914,136.43396226415095
1215,2,64,13589,Theodore Roosevelts Vej,2450,55.6490514,12.5352729,212.328125
1216,3,93,22500,Islands Brygge,2300,55.656803,12.5655565,241.93548387096774
1217,4,116,16150,Ørestad Boulevard,2300,55.6403311,12.5829753,139.22413793103448
1218,4,126,19824,Theodore Roosevelts Vej,2450,55.6490514,12.5352729,157.33333333333334
1219,3,125,19200,Ved Stigbordene,2450,55.6437643,12.5507496,153.6
1220,2,67,11150,Børge Olsens Plads,2610,55.67117589999999,12.4728844,166.4179104477612
1221,3,140,17900,Etta Camerons Vej,2450,55.64548809999999,12.5457852,127.85714285714286
1222,3,93,15538,Theodore Roosevelts Vej,2450,55.6490514,12.5352729,167.0752688172043
1223,4,141,16950,Asger Jorns Allé,2300,55.6196855,12.5740996,120.2127659574468
1224,3,77,13200,Michael Strunges Vej,2300,55.6380014,12.581605,171.42857142857142
1225,2,44,9600,Rødovre Port,2610,55.66509569999998,12.4561535,218.1818181818182
1226,2,66,12300,Michael Strunges Vej,2300,55.6376636,12.5807748,186.36363636363637
1227,4,106,14462,Gyngemose Parkvej,2860,55.72563599999999,12.478914,136.43396226415095
1228,4,94,14900,Else Alfelts Vej,2300,55.6194089,12.5679844,158.51063829787233
1229,4,101,14775,Ørestads Boulevard,2300,55.636709,12.582897,146.2871287128713
1230,4,94,14900,Else Alfelts Vej,2300,55.6194089,12.5679844,158.51063829787233
1231,2,67,11900,Emma Gads Vej,2300,55.6378427,12.580475,177.61194029850745
1232,2,59,11650,Ørestads Boulevard,2300,55.636709,12.582897,197.45762711864407
1233,3,93,13500,Irmavej,2610,55.676946,12.4348753,145.16129032258064
1234,3,96,14977,Robert Jacobsens Vej,2300,55.6215844,12.5734099,156.01041666666666
1235,4,129,15900,Ørestads Boulevard,2300,55.636709,12.582897,123.25581395348837
1236,1,49,10700,Siljangade,2300,55.66874499999999,12.613605,218.3673469387755
1237,4,111,14500,Gadelandet,2700,55.7112397,12.4802508,130.63063063063063
1238,1,60,40000,Hjørringgade,2100,55.7060857,12.5885685,666.6666666666666
1239,2,64,10650,Else Alfelts Vej,2300,55.6174184,12.5663495,166.40625
1240,4,94,13950,Børge Olsens Plads,2610,55.67117589999999,12.4728844,148.40425531914894
1241,4,144,21833,Theodore Roosevelts Vej,2450,55.6490514,12.5352729,151.61805555555554
1242,4,122,16775,Poppelstykket,2450,55.652386,12.5119906,137.5
1243,3,148,44800,Islands Brygge,2300,55.657744,12.5674161,302.7027027027027
1244,3,95,14800,Michael Strunges Vej,2300,55.6377956,12.5818321,155.78947368421052
1245,4,140,18500,Martha Christensens Vej,2300,55.63817479999999,12.5815966,132.14285714285714
1246,1,46,10700,Vanløse Allé,2720,55.6884627,12.4943031,232.6086956521739
1247,3,71,12900,Else Alfelts Vej,2300,55.6165207,12.5662034,181.69014084507043
1248,3,135,22500,Havneholmen,2450,55.6604043,12.5596727,166.66666666666666
1249,4,103,14450,Børge Olsens Plads,2610,55.67117589999999,12.4728844,140.29126213592232
1250,3,77,14000,Else Alfelts Vej,2300,55.6168704,12.5660394,181.8181818181818
1251,1,32,7334,Theklavej,2400,55.70550189999999,12.5271191,229.1875
1252,3,139,18995,Auroravej,2610,55.6761934,12.4719775,136.6546762589928
1253,2,29,10750,Lindevangs Alle,2000,55.6806768,12.5182946,370.6896551724138
1254,1,43,10100,Else Alfelts Vej,2300,55.6165207,12.5662034,234.88372093023256
1255,4,95,15500,Rødovre Port,2610,55.665523,12.456098,163.1578947368421
1256,3,79,11900,Gadelandet,2700,55.7115422,12.4809887,150.63291139240508
1257,2,64,11550,Else Alfelts Vej,2300,55.6174184,12.5663495,180.46875
1258,4,118,20250,Otto Brandenburgs Vej,2450,55.6444396,12.551754,171.61016949152543
1259,4,102,15300,Else Alfelts Vej,2300,55.6184668,12.5667396,150.0
1260,3,96,14750,Ved Stigbordene,2450,55.6443179,12.5490366,153.64583333333334
1261,4,104,14200,Børge Olsens Plads,2610,55.67117589999999,12.4728844,136.53846153846155
1262,4,99,14400,Aage Knudsens Strøg,2610,55.6889548,12.4492456,145.45454545454547
1263,3,105,14300,Pladehals Allé,2450,55.6561101,12.5497959,136.1904761904762
1264,3,76,12800,Gyngemose Parkvej,2860,55.7275956,12.479145,168.42105263157896
1265,2,63,11050,Else Alfelts Vej,2300,55.6174184,12.5663495,175.3968253968254
1266,4,124,17100,Else Alfelts Vej,2300,55.619128,12.5686257,137.90322580645162
1267,3,86,13125,Ørestads Boulevard,2300,55.636709,12.582897,152.61627906976744
1268,1,32,6350,Gyngemose Parkvej,2860,55.7272197,12.4792895,198.4375
1269,2,62,10950,Kaffevej,2610,55.6764488,12.4364167,176.61290322580646
1270,2,52,12200,Michael Strunges Vej,2300,55.6378413,12.5811397,234.6153846153846
1271,4,100,14167,Hannemanns Allé,2300,55.626185,12.5762249,141.67
1272,3,102,18300,Marmorvej,2100,55.7037534,12.5967886,179.41176470588235
1273,3,65,14138,Njalsgade,2300,55.6630951,12.5935843,217.5076923076923
1274,1,28,8139,Jorisvej,2300,55.645948,12.6361201,290.67857142857144
1275,4,95,15500,Rødovre Port,2610,55.66552309999999,12.4561091,163.1578947368421
1276,3,89,13200,Else Alfelts Vej,2300,55.6169586,12.5663611,148.31460674157304
1277,3,119,19995,Drechselsgade,2300,55.65812829999999,12.567894,168.0252100840336
1278,3,82,14500,Nadine Gordimers Vej,2300,55.6354657,12.5775419,176.82926829268294
1279,3,96,15650,Ved Stigbordene,2450,55.6443179,12.5490366,163.02083333333334
1280,4,103,16600,Teglholmens Østkaj,2450,55.64917459999998,12.5549727,161.16504854368932
1281,4,104,18100,Teglholmens Østkaj,2450,55.64917459999998,12.5549727,174.03846153846155
1282,3,91,14300,Emma Gads Vej,2300,55.6378427,12.580475,157.14285714285714
1283,2,167,27300,Islands Brygge,2300,55.657744,12.5674161,163.47305389221557
1284,3,106,15900,Teglholmens Østkaj,2450,55.6492942,12.5533005,150.0
1285,1,63,12200,Siljangade,2300,55.6683925,12.6129895,193.65079365079364
1286,3,101,17700,Linus Paulings Vej,2450,55.6543061,12.5537018,175.24752475247524
1287,4,93,12900,Gadelandet,2700,55.7115422,12.4809887,138.70967741935485
